route_id,stop_id,stop_name,stop_lat,stop_lon
43,1249,Tremont St @ Rutland Sq,-71.077301,42.341006
43,1250,Tremont St @ Worcester St,-71.078787,42.3401870000001
43,1251,Tremont St @ W Springfield St,-71.0797679999999,42.339703
43,1252,Tremont St @ Northampton St,-71.081129,42.338955
43,1253,Tremont St @ Douglas Pk,-71.083178,42.3378240000001
43,1254,Tremont St @ Burke St,-71.0848,42.336908
43,1255,Tremont St @ Columbus Ave,-71.086948,42.3357790000001
22,1257,Tremont St @ Prentiss St,-71.0923779999999,42.3330710000001
22,1258,Tremont St @ Roxbury Crossing Station,-71.0948309999999,42.331311
15,1259,Malcolm X Blvd opp Madison Park HS,-71.0898579999999,42.3309750000001
15,1259,Malcolm X Blvd opp Madison Park HS,-71.0898579999999,42.3309750000001
22,1260,Columbus Ave @ New Cedar St,-71.0973099999999,42.328067
22,1262,Columbus Ave @ Heath St,-71.098483,42.325028
22,1265,Columbus Ave @ Dimock St,-71.09854,42.319662
22,1266,Columbus Ave opp Bray St,-71.0984339999999,42.3170660000001
65,1268,Washington St @ Shepard St,-71.1498819999999,42.3482240000001
65,1269,Washington St @ Snow St,-71.148221,42.34688
65,1270,Washington St @ Monastery Rd,-71.146379,42.3461110000001
65,1272,Washington St @ Euston St,-71.144682,42.344633
65,1273,Washington St @ Commonwealth Ave,-71.143266,42.343868
65,1274,Washington St @ Corey Rd,-71.140567,42.3423940000001
65,1275,Wahington St @ Evans Rd,-71.1379449999999,42.3410420000001
65,1276,Washington St @ Beacon St,-71.135705,42.339476
65,1278,Washington St @ Winthrop Path,-71.131602,42.338307
65,1279,Washington St @ Gardner Rd,-71.129157,42.3384120000001
65,1280,Washington St @ Gardner Path,-71.12648,42.336982
65,1281,Washington St @ Greenough Circle,-71.124667,42.3351290000001
65,1282,Washington St @ Cypress St,-71.122877,42.334528
65,1283,Washington St @ Harvard St,-71.1188779999999,42.3329150000001
65,1286,Washington St @ Harvard St,-71.1188329999999,42.333022
65,1287,Washington St @ School St,-71.123209,42.334729
65,1288,Washington St opp Greenough St,-71.124648,42.3352390000001
65,1289,Washington St @ Griggs Rd,-71.126747,42.337403
65,1290,Washington St opp Gardner Rd,-71.1289159999999,42.338505
65,1291,Washington St @ Fairbanks St,-71.131336,42.3383640000001
65,1292,Washington St @ Beacon St,-71.1350659999999,42.3391990000001
65,1293,Washington St @ Bartlett St,-71.138162,42.3412450000001
65,1294,Washington St @ Corey Rd,-71.140297,42.3423690000001
65,1295,Washington St @ Commonwealth Ave,-71.142524,42.3435860000001
65,1296,Washington St opp Euston Rd,-71.144416,42.344593
65,1298,Washington St @ Monastery Rd,-71.1461169999999,42.346056
65,1299,Washington St opp Snow St,-71.1482129999999,42.3469920000001
65,1300,Washington St opp Shepard St,-71.149638,42.34813
65,1301,7 Winship St,-71.1507549999999,42.3488140000001
66,1302,Harvard Ave @ Commonwealth Ave,-71.131245,42.350621
66,1304,Harvard St @ Coolidge St,-71.127662,42.3457070000001
66,1306,Harvard St @ Shailer St,-71.124518,42.3439740000001
66,1308,Harvard St @ Beacon St,-71.121845,42.342499
66,1309,Harvard St @ Marion St,-71.1210379999999,42.339637
66,1310,Harvard St @ Harris St,-71.121506,42.3379140000001
66,1311,Harvard St @ School St,-71.120492,42.335832
66,1313,Harvard St @ Washington St,-71.118774,42.332975
66,1314,Huntington Ave @ S Huntington Ave,-71.112179,42.3318200000001
35,1315,Huntington Ave @ Parker Hill Ave,-71.109678,42.3330920000001
35,1317,Huntington Ave opp Fenwood Rd,-71.105586,42.3337040000001
35,1319,Tremont St opp Wigglesworth St,-71.103909,42.333785
35,1319,Tremont St opp Wigglesworth St,-71.103909,42.333785
66,1320,Tremont St @ Saint Alphonsus St,-71.101262,42.332857
66,1322,Tremont St @ Sewall St,-71.097819,42.3318190000001
66,1323,Tremont St @ Columbus Ave,-71.095333,42.3314790000001
32,1325,Humboldt Ave @ Seaver St,-71.0918799999999,42.3101
32,1326,Humboldt Ave @ Hutchings St,-71.0909359999999,42.311245
32,1327,Humboldt Ave @ Homestead St,-71.090515,42.311784
32,1328,Humboldt Ave @ Crawford St,-71.08924,42.3133540000001
32,1330,Humboldt Ave @ Waumbeck St,-71.088338,42.3144960000001
32,1331,Humboldt Ave @ Wyoming St,-71.08735,42.3157160000001
32,1332,Humboldt Ave @ Townsend St,-71.0865029999999,42.3169340000001
32,1332,Humboldt Ave @ Townsend St,-71.0865029999999,42.3169340000001
32,1332,Humboldt Ave @ Townsend St,-71.0865029999999,42.3169340000001
32,1332,Humboldt Ave @ Townsend St,-71.0865029999999,42.3169340000001
44,1334,Humboldt Ave @ Humboldt Ct,-71.0860929999999,42.3185350000001
44,1335,Humboldt Ave @ ML King Blvd,-71.085952,42.319237
44,1337,Walnut Ave @ Dale St,-71.085947,42.3205190000001
44,1338,Walnut Ave @ Rockland St,-71.0848549999999,42.322364
44,1339,Walnut Ave @ St Richard St,-71.084009,42.3235340000001
44,1340,Walnut Ave @ Circuit St,-71.083852,42.323789
44,1341,Walnut Ave @ Rockland St,-71.085003,42.3223560000001
44,1342,Walnut Ave @ Humboldt Ave,-71.0860749999999,42.3206970000001
44,1344,Humboldt Ave @ ML King Blvd,-71.0860729999999,42.3192240000001
44,1345,Humboldt Ave @ Munroe St,-71.0863209999999,42.3180800000001
32,1346,Humboldt Ave @ Townsend St,-71.08655,42.3171340000001
32,1350,Humboldt Ave @ Waumbeck St,-71.0883219999999,42.3146990000001
32,1351,Humboldt Ave @ Crawford St,-71.089559,42.313142
32,1352,Humboldt Ave @ Homestead St,-71.090502,42.31199
32,1353,Humboldt Ave @ Hutchings St,-71.091087,42.3112370000001
32,1354,Humboldt Ave @ Seaver St,-71.092009,42.3100860000001
19,1357,Tremont St opp Roxbury Crossing Sta,-71.095246,42.33158
66,1360,Tremont St @ Saint Alphonsus St,-71.1013829999999,42.3330310000001
66,1362,Tremont St @ Huntington Ave,-71.103897,42.3339060000001
35,1363,Huntington Ave @ Fenwood Rd,-71.105717,42.333739
35,1365,835 Huntington Ave opp Parker Hill Ave,-71.109273,42.3332800000001
66,1366,Huntington Ave @ Riverway,-71.112606,42.332009
66,1367,Harvard St @ Kent St,-71.118666,42.3332600000001
66,1369,Harvard St @ Aspinwall Ave,-71.1206119999999,42.3360980000001
66,1369,Harvard St @ Aspinwall Ave,-71.1206119999999,42.3360980000001
66,1371,Harvard St opp Vernon St,-71.121312,42.3382260000001
66,1371,Harvard St opp Vernon St,-71.121312,42.3382260000001
66,1372,Harvard St @ Beacon St,-71.121143,42.341909
66,1373,Harvard St @ Stedman St,-71.1248659999999,42.344321
66,1375,Harvard St @ Coolidge St,-71.127686,42.345963
66,1376,Harvard St opp Verndale St,-71.129451,42.348572
66,1378,Harvard Ave @ Commonwealth Ave,-71.130753,42.3500930000001
66,1378,Harvard Ave @ Commonwealth Ave,-71.130753,42.3500930000001
66,1379,Harvard Ave @ Brighton Ave,-71.1318429999999,42.3524180000001
10,1381,W Dedham St @ Washington St,-71.0711039999999,42.3409340000001
10,1381,W Dedham St @ Washington St,-71.0711039999999,42.3409340000001
10,1382,43 W Dedham St,-71.0729219999999,42.342067
10,1383,Dartmouth St @ Tremont St,-71.0737599999999,42.3429760000001
10,1384,Dartmouth St @ Appleton St,-71.0747709999999,42.345018
10,1395,Dartmouth St @ Appleton St,-71.074969,42.345156
10,1396,Dartmouth St @ Tremont St,-71.0738489999999,42.3428850000001
10,1397,Opp 43 W Dedham St,-71.0729229999999,42.3419240000001
10,1398,W Dedham St @ Washington St,-71.071385,42.3408830000001
55,1399,Belvidere St @ Huntington Ave,-71.0819319999999,42.345533
69,1400,Cambridge St @ Prescott St,-71.1128679999999,42.3752200000001
69,1401,Cambridge St @ Trowbridge St,-71.110198,42.3748840000001
69,1402,Cambridge St @ Dana St,-71.1071919999999,42.3744820000001
69,1403,Cambridge St @ Highland Ave,-71.104529,42.374149
69,1406,Cambridge St @ Norfolk St,-71.0963609999999,42.3730880000001
69,1409,Cambridge St @ Berkshire St,-71.089883,42.3722480000001
69,1411,Cambridge St @ Sixth St,-71.08492,42.371607
69,1412,Cambridge St @ Fifth St,-71.083264,42.371395
69,1413,Cambridge St @ Sciarappa St,-71.0816369999999,42.371184
69,1416,Cambridge St @ Third St,-71.080024,42.3710790000001
69,1417,Cambridge St @ Sciarappa St,-71.081692,42.3712850000001
69,1418,Cambridge St @ Fifth St,-71.083319,42.371497
69,1419,Cambridge St @ Sixth St,-71.0846569999999,42.371669
69,1420,Cambridge St @ Lambert St,-71.087253,42.3720020000001
69,1421,Cambridge St @ Berkshire St,-71.089941,42.37235
69,1422,Cambridge St @ Windsor St,-71.0931429999999,42.3727670000001
69,1422,Cambridge St @ Windsor St,-71.0931429999999,42.3727670000001
69,1422,Cambridge St @ Windsor St,-71.0931429999999,42.3727670000001
69,1423,Cambridge St @ Norfolk St,-71.096101,42.3731480000001
69,1424,Cambridge St @ Prospect St,-71.09798,42.3733960000001
69,1425,Cambridge St @ Springfield St,-71.1003709999999,42.373716
69,1426,Cambridge St opp Fayette St,-71.102266,42.3739430000001
69,1427,Cambridge St @ Camelia Ave - Cambridge Hospital,-71.105017,42.374312
69,1428,Cambridge St @ Hovey Ave,-71.107961,42.374694
69,1429,Cambridge St @ Trowbridge St,-71.109935,42.374944
69,1430,Felton St @ Cambridge St,-71.11234,42.375048
68,1431,Broadway @ Felton St,-71.1126649999999,42.373954
70,1432,Arsenal St @ Irving St,-71.178882,42.364757
70,1433,Arsenal St @ Beacon Pk,-71.175442,42.364533
70,1434,Arsenal St @ Beechwood Ave,-71.173348,42.3643460000001
70,1435,Arsenal St @ Louise St,-71.1711809999999,42.3641610000001
70,1436,Arsenal St opp School St,-71.16682,42.3637810000001
70,1437,Arsenal St @ Talcott Ave,-71.164818,42.363659
70,1438,500 Arsenal St - Watertown + Arsenal Mall,-71.158204,42.362801
70,1441,Arsenal St opp Elm St,-71.15613,42.3625700000001
70,1442,Arsenal St opp Arlington St,-71.1533669999999,42.3622570000001
70,1443,Arsenal St @ Arlington St,-71.1533719999999,42.36244
70,1444,Arsenal St @ Elm St,-71.155659,42.362711
70,1445,Arsenal St @ Watertown + Arsenal Mall,-71.1594499999999,42.3631090000001
70,1447,Arsenal St opp Talcott Ave,-71.164818,42.363659
70,1448,Arsenal St @ School St,-71.166883,42.363883
70,1449,Arsenal St opp Louise St,-71.1712469999999,42.3642600000001
70,1450,Arsenal St opp Beechwood Ave,-71.173414,42.364445
70,1451,Arsenal St opp Beacon Pk,-71.175426,42.364626
70,1452,Arsenal St @ Irving St,-71.1789479999999,42.364856
15,1468,Bowdoin St @ Geneva Ave,-71.071275,42.303506
15,1469,169 Bowdoin St opp Eunice St,-71.06958,42.304268
15,1470,Bowdoin St @ Norton St,-71.067931,42.305431
15,1471,Bowdoin St @ Hamilton St,-71.067043,42.3061270000001
15,1472,Bowdoin St opp Elba Terr,-71.0654729999999,42.307568
15,1473,Bowdoin St @ Quincy St,-71.064859,42.308158
15,1474,Bowdoin St @ Winter St,-71.062685,42.310208
15,1475,Hancock St @ Bowdoin St,-71.062663,42.311316
15,1475,Hancock St @ Bowdoin St,-71.062663,42.311316
15,1478,Hancock St @ Rowell St,-71.0644799999999,42.3126760000001
15,1478,Hancock St @ Rowell St,-71.0644799999999,42.3126760000001
15,1479,Hancock St @ Jerome St,-71.0658129999999,42.3149100000001
15,1480,Columbia Rd @ Hancock St,-71.0657649999999,42.3163630000001
15,1481,Dudley St @ Belden St,-71.066085,42.317531
15,1484,Dudley St @ E Cottage St,-71.0721349999999,42.321419
15,1485,Dudley St @ Langdon St,-71.073929,42.323849
15,1486,Dudley St @ Magazine St,-71.074807,42.325142
15,1486,Dudley St @ Magazine St,-71.074807,42.325142
15,1487,Dudley St @ Hampden St,-71.075411,42.326245
15,1488,Dudley St @ Adams St,-71.0774939999999,42.327844
15,1489,Dudley St @ Dearborn St,-71.079127,42.3285230000001
15,1491,Dudley St @ Harrison Ave,-71.082962,42.328655
15,1493,Dudley St @ Greenville St,-71.0810099999999,42.3284340000001
15,1495,Dudley St @ Adams St,-71.0774029999999,42.3276020000001
15,1496,381 Dudley St opp Hampden St,-71.075452,42.326122
15,1497,Dudley St @ Blue Hill Ave,-71.074964,42.3250780000001
15,1498,Dudley St @ Dennis St,-71.073931,42.3236430000001
15,1499,Dudley St @ W Cottage St,-71.072268,42.321257
15,1500,Dudley St @ Howard Ave,-71.071274,42.3200620000001
15,1501,Dudley St @ Uphams Corner Station,-71.0692529999999,42.3187100000001
15,1503,Columbia Rd opp Cushing Ave,-71.065682,42.3167800000001
15,1504,Hancock St @ Bird St,-71.065955,42.314891
15,1506,Hancock St @ Trull St,-71.064654,42.3126770000001
15,1508,Hancock St @ Bowdoin St,-71.062716,42.310318
15,1509,Bowdoin St @ Tovar St,-71.063141,42.310102
15,1510,Bowdoin St @ Hendry St,-71.0643259999999,42.308815
15,1511,Bowdoin St @ Quincy St,-71.06501,42.308167
15,1512,Bowdoin St @ Hamilton St,-71.0669819999999,42.3063270000001
15,1513,Bowdoin St @ Olney St,-71.068298,42.3052920000001
15,1514,Bowdoin St @ Eunice St,-71.0697279999999,42.304293
15,1515,Bowdoin St @ Geneva Ave,-71.071427,42.303498
60,1521,Brookline Ave @ Longwood Ave,-71.1074649999999,42.338829
60,1523,Brookline Ave @ Francis St,-71.109515,42.336893
60,1523,Brookline Ave @ Francis St,-71.109515,42.336893
60,1523,Brookline Ave @ Francis St,-71.109515,42.336893
60,1524,Brookline Ave @ Aspinwall Ave,-71.1116689999999,42.3348250000001
60,1525,Brookline Ave @ Pearl St,-71.1138339999999,42.3328050000001
65,1526,Washington St @ Pearl St,-71.116613,42.3318870000001
60,1527,Walnut St @ High St,-71.117846,42.3312510000001
60,1528,High St opp Edgehill Rd,-71.1193489999999,42.3276780000001
60,1529,High St @ Oakland Rd,-71.120223,42.326268
60,1530,Cypress St opp Henry St,-71.1219,42.3254250000001
60,1531,Cypress St @ Rice St,-71.1241669999999,42.327164
60,1532,Cypress St @ Walnut St,-71.1258089999999,42.3284400000001
51,1533,Boylston St @ Clark Rd,-71.128527,42.3297390000001
51,1534,Boylston St @ Sumner Rd,-71.132781,42.328992
60,1535,Boylston St @ Chestnut Hill Ave,-71.142458,42.326553
60,1536,Boylston St @ Reservoir Rd,-71.147792,42.3266790000001
60,1539,Boylston St @ Norfolk Rd,-71.159212,42.32476
60,1540,Boylston St @ Hammond St,-71.1639249999999,42.32361
60,1541,Boylston St @ Randolph Rd,-71.159081,42.32451
60,1543,850 Boylston St,-71.148904,42.326395
60,1544,Opp 763 Boylston St,-71.145053,42.3262510000001
60,1545,Boylston St @ Heath St,-71.142702,42.3262540000001
60,1546,Boylston St @ Warren St,-71.13262,42.3287060000001
60,1547,Boylston St @ Kennard Rd,-71.128441,42.329502
60,1548,Cypress St @ Milton Rd,-71.126136,42.329465
60,1549,Cypress St @ Walnut St,-71.126042,42.3285480000001
60,1550,Cypress St @ Kendall St,-71.1244,42.3272690000001
60,1551,Cypress St @ Franklin St,-71.122295,42.3255560000001
60,1552,High St @ Cypress St,-71.121275,42.324798
60,1553,High St @ Highland Rd,-71.120199,42.3260670000001
60,1554,High St @ Cumberland Ave,-71.119112,42.327864
60,1555,Washington St @ Walnut St,-71.1161559999999,42.3315860000001
60,1556,678 Brookline Ave opp Pearl St,-71.114167,42.3322850000001
60,1557,Brookline Ave opp Aspinwall Ave,-71.1115169999999,42.334819
60,1558,Brookline Ave @ Francis St,-71.109367,42.336887
60,1559,Brookline Ave @ Deaconess Rd,-71.108336,42.337877
10,1565,Franklin Park Loop @ Zoo entrance,-71.086506,42.3022730000001
45,1566,Blue Hill Ave opp Warren St,-71.082454,42.30962
45,1567,Blue Hill Ave @ Intervale St,-71.080747,42.3117760000001
45,1569,Blue Hill Ave @ Quincy St,-71.078817,42.314494
45,1570,Blue Hill Ave @ Woodcliff St,-71.0781039999999,42.3161210000001
45,1571,Blue Hill Ave @ Ingleside St,-71.0779259999999,42.3173170000001
45,1572,Blue Hill Ave @ Julian St,-71.077688,42.319177
45,1573,Blue Hill Ave @ W Cottage St,-71.077688,42.320324
45,1574,Blue Hill Ave @ Moreland St,-71.076673,42.322776
45,1575,Blue Hill Ave @ Winthrop St,-71.076161,42.3235040000001
45,1576,Blue Hill Ave @ Dudley St,-71.0750189999999,42.3251220000001
45,1577,Blue Hill Ave @ Mt Pleasant Ave,-71.07517,42.3251220000001
45,1578,Blue Hill Ave @ Winthrop St,-71.076306,42.323491
45,1579,Blue Hill Ave opp Stafford St,-71.077232,42.322139
45,1580,Blue Hill Ave @ Irwin St,-71.0776049999999,42.3211220000001
45,1581,Blue Hill Ave @ Clifford St,-71.077823,42.319151
45,1582,Blue Hill Ave @ Edgewood St,-71.078086,42.31715
45,1583,Blue Hill Ave @ Quincy St,-71.078834,42.3146970000001
45,1584,Blue Hill Ave @ Gaston St,-71.079686,42.3133090000001
45,1585,Blue Hill Ave @ Brunswick St,-71.081148,42.311448
45,1586,Blue Hill Ave @ Stanwood St,-71.082173,42.310143
16,1587,Franklin Park Zoo @ Entrance,-71.08595,42.303124
70,1589,Western Ave @ Riverdale St,-71.132038,42.3631480000001
61,1606,Bacon St @ Clark Ln,-71.240192,42.387995
61,1607,Bacon St @ Greenwood Ln,-71.240623,42.3866590000001
61,1608,Bacon St @ Kendall Pk,-71.241157,42.3850150000001
61,1609,Bacon St @ Dale St,-71.2414439999999,42.38412
40,1612,W Boundary Rd @ Cedarcrest Rd,-71.146603,42.262345
40,1613,W Boundary Rd @ Ohrenberger School,-71.147072,42.2610490000001
40,1614,W Boundary Rd @ Georgetowne Dr,-71.145549,42.2593150000001
40,1615,Georgetowne Dr @ Margaretta Dr,-71.145226,42.2576050000001
40,1616,Margaretta Dr @ Crown Point Dr,-71.1463899999999,42.257411
40,1617,Opp 67 Crown Point Dr,-71.146429,42.257205
40,1618,84 Georgetowne Pl,-71.145182,42.254718
40,1620,Georgetowne Dr opp Margaretta Dr,-71.144938,42.2574750000001
40,1621,W Boundary Rd @ Georgetowne Dr,-71.145404,42.2593450000001
40,1623,W Boundary Rd @ Cedarcrest Rd,-71.146361,42.262682
238,1627,Liberty St @ Water St,-71.005957,42.2405870000001
238,1628,Liberty St @ Penn St,-71.0072049999999,42.239247
238,1633,Centre St @ Intervale St,-71.013361,42.2363540000001
238,1634,Centre St @ Brooks Ave,-71.0150869999999,42.238052
238,1635,Centre St @ Granite St,-71.016759,42.2397240000001
238,1636,Centre St @ Kent St,-71.018784,42.240995
238,1637,West St @ Centre St,-71.021578,42.241968
238,1638,West St @ Lyons St,-71.0229229999999,42.2415800000001
238,1639,West St @ Ida St,-71.024085,42.2407480000001
238,1640,West St @ Doble St,-71.0252629999999,42.239285
238,1641,West St @ Hayden St,-71.025546,42.2384210000001
238,1642,West St @ Wickford Ln,-71.0262289999999,42.2373180000001
238,1643,West St @ Willard St,-71.028228,42.2359420000001
238,1644,Willard St opp Ames St,-71.028609,42.2348010000001
238,1645,Opp 710 Willard St,-71.0289339999999,42.233779
238,1646,Willard St opp St Moritz Ave,-71.029951,42.2320730000001
238,1647,Willard St opp Thistle Rd,-71.030998,42.2297780000001
238,1648,859 Willard St,-71.031558,42.227896
238,1649,Granite St @ Wood Rd,-71.032004,42.226141
238,1650,Granite St @ Partridge Hill Rd,-71.0277609999999,42.219946
350,1656,Mystic St @ Garden St,-71.1510039999999,42.418301
350,1657,Mystic St @ Rangely Rd,-71.153004,42.420438
350,1658,Mystic St @ Farrington St,-71.153763,42.421405
350,1659,201 Mystic St,-71.153805,42.4222320000001
350,1660,Mystic St @ Davis Ave,-71.1528739999999,42.423843
350,1661,Mystic St @ Beverley Rd,-71.1519709999999,42.4264200000001
350,1662,355 Mystic St,-71.153151,42.429362
350,1663,449 Mystic St - Winchester Line,-71.15536,42.4345710000001
350,1665,Cambridge St @ Robinson Pk,-71.152499,42.4393010000001
350,1670,Cambridge St @ Church St,-71.153201,42.4465870000001
350,1671,125 Cambridge St opp Oneida Rd,-71.1541589999999,42.447506
350,1672,Cambridge St @ Foxcroft Rd,-71.155274,42.4490650000001
350,1673,Cambridge St @ Wildwood St,-71.156869,42.4516140000001
350,1674,Cambridge St @ Pond St,-71.159548,42.455858
350,1677,Cambridge Rd @ NE Rehab Hospital,-71.1657739999999,42.4609160000001
350,1678,Cambridge Rd @ Country Club Rd,-71.1687659999999,42.4613650000001
350,1679,254 Cambridge Rd,-71.171197,42.461377
350,1680,Cambridge Rd opp Parker St,-71.173918,42.463484
350,1681,Cambridge Rd @ Crawford Dr,-71.175406,42.465195
350,1682,Cambridge Rd @ Litchfield Dr,-71.176458,42.466164
350,1683,Cambridge Rd @ Russell St,-71.178331,42.4679390000001
350,1684,Cambridge Rd opp Revere Rd,-71.180056,42.470559
350,1686,Cambridge Rd @ Locust St,-71.1821399999999,42.475537
350,1687,Cambridge Rd @ Bedford Rd,-71.185216,42.47988
350,1688,Cambridge St @ Ray Ave,-71.186437,42.4811690000001
350,1689,Cambridge St opp Lincoln Knoll Ln,-71.188235,42.482828
350,1690,Cambridge St @ Wall St,-71.189653,42.485322
350,1691,Cambridge St @ Burlington Mall Rd,-71.192697,42.491162
350,1692,76 Cambridge St,-71.193675,42.4924110000001
350,1693,Cambridge St @ Birchcrest St,-71.194782,42.5011700000001
350,1694,Cambridge St @ Cedarwood Ln,-71.195031,42.501785
350,1695,Cambridge St @ Bedford St,-71.1957839999999,42.504893
350,1696,Cambridge St @ Olympian Ave,-71.195703,42.5063970000001
350,1697,Cambridge St @ Winn St,-71.199212,42.5100440000001
350,1698,Cambridge St @ Skilton Ln,-71.20203,42.51248
350,1699,Cambridge St @ Pontos Ave,-71.205012,42.5149850000001
28,1706,Blue Hill Ave @ Harvard St,-71.088186,42.294679
28,1706,Blue Hill Ave @ Harvard St,-71.088186,42.294679
28,1708,Blue Hill Ave @ Paxton St,-71.088996,42.2922570000001
28,1709,Blue Hill Ave @ Greenock St,-71.089874,42.2896390000001
28,1710,Blue Hill Ave @ Johnston Rd,-71.090663,42.2871680000001
28,1713,Blue Hill Ave @ Goodale Rd,-71.092282,42.282425
28,1714,Blue Hill Ave @ Wellington Hill St,-71.093194,42.279563
28,1716,Blue Hill Ave @ Mattapan St,-71.093719,42.2765850000001
28,1717,Blue Hill Ave @ Almont St,-71.093802,42.274185
28,1718,Blue Hill Ave @ Woodhaven St,-71.0938159999999,42.27315
28,1720,Blue Hill Ave @ Mattapan Sq,-71.0939549999999,42.2687600000001
28,1722,1624 Blue Hill Ave @ Mattapan Sq,-71.0935229999999,42.2688020000001
28,1723,Blue Hill Ave @ Babson St,-71.0934789999999,42.270449
28,1723,Blue Hill Ave @ Babson St,-71.0934789999999,42.270449
28,1724,Blue Hill Ave opp Woodhaven St,-71.093404,42.272976
28,1725,1458 Blue Hill Ave opp Almont St,-71.093328,42.2749180000001
28,1726,Blue Hill Ave @ Mattapan Library,-71.0932999999999,42.277067
28,1728,Blue Hill Ave @ Fessenden St,-71.092891,42.2792650000001
28,1730,Blue Hill Ave @ Woolson St,-71.091866,42.282273
28,1731,Blue Hill Ave @ Morton St,-71.091323,42.2841080000001
28,1731,Blue Hill Ave @ Morton St,-71.091323,42.2841080000001
28,1732,Blue Hill Ave @ Woodrow Ave,-71.090795,42.285515
28,1732,Blue Hill Ave @ Woodrow Ave,-71.090795,42.285515
28,1733,Blue Hill Ave @ Arbutus St,-71.089996,42.287966
28,1734,Blue Hill Ave @ Callender St,-71.089446,42.2895830000001
28,1735,Blue Hill Ave @ Westview St,-71.0888909999999,42.291296
28,1736,Blue Hill Ave opp Health Ctr,-71.087959,42.294063
22,1737,Blue Hill Ave @ Harvard St,-71.0876069999999,42.2953160000001
22,1737,Blue Hill Ave @ Harvard St,-71.0876069999999,42.2953160000001
22,1739,Seaver St @ Maple St,-71.087237,42.3067610000001
22,1740,Seaver St @ Elm Hill Ave,-71.088811,42.307599
22,1741,Seaver St @ Humboldt Ave,-71.09216,42.310073
22,1743,Columbus Ave @ Walnut Ave,-71.0951029999999,42.3135370000001
14,1747,Heath St @ VA Hospital,-71.108468,42.32732
14,1749,Heath St opp Hayden St,-71.1070549999999,42.326759
14,1750,Heath St @ Walden St,-71.104744,42.326014
14,1751,106 Heath St opp Bickford Ave,-71.101936,42.3263160000001
14,1752,Heath St @ Parker St,-71.100399,42.3260690000001
14,1753,34 Heath St opp Bromley St,-71.099639,42.3252620000001
14,1755,Heath St @ Wensley St,-71.100404,42.3264530000001
14,1756,107 Heath St opp Bickford Ave,-71.1021949999999,42.3263910000001
14,1757,177 Heath St opp Walden St,-71.105107,42.3261370000001
14,1758,Heath St @ Hayden St,-71.1062219999999,42.3263850000001
14,1760,Heath St opp VA Hospital,-71.10846,42.32743
14,1761,Heath St @ S Huntington Ave,-71.1102759999999,42.3286380000001
47,1764,Pearl St @ Cottage St,-71.105273,42.362308
47,1766,Pearl St @ Erie St,-71.1075939999999,42.3601990000001
47,1771,Granite St @ Pearl St,-71.111914,42.3558540000001
47,1772,Granite St @ Brookline St,-71.1104759999999,42.355065
47,1773,Mountfort St @ Lenox St,-71.109993,42.349273
47,1775,Park Dr @ Beacon St,-71.1052589999999,42.346727
47,1807,Park Dr @ Fenway Station,-71.1042659999999,42.3452140000001
47,1808,Park Dr @ Beacon St,-71.105198,42.3471000000001
47,1809,Park Dr @ Mountfort St,-71.105903,42.3483130000001
47,1810,Commonwealth Ave @ University Rd,-71.109976,42.3507500000001
47,1811,Brookline St @ Granite St,-71.1099869999999,42.355374
47,1812,Brookline St @ Putnam Ave,-71.107841,42.3574380000001
47,1813,Brookline St @ Erie St,-71.105984,42.359218
47,1814,Brookline St @ Tudor St,-71.104325,42.3607700000001
47,1816,Brookline St @ Green St,-71.1019479999999,42.363303
47,1817,Pearl St @ Franklin St,-71.103684,42.363748
51,1836,Independence Dr opp Shopping Mall,-71.157775,42.2957970000001
51,1838,Opp 650 VFW Pkwy,-71.158716,42.295424
51,1839,VFW Pkwy @ Corey St,-71.16257,42.293545
51,1840,310 Corey St,-71.162185,42.292945
51,1841,Corey St @ Weld St,-71.160747,42.2916210000001
51,1842,Weld St @ Ruskin St,-71.1585699999999,42.2917670000001
51,1843,Weld St @ Maple St,-71.1574209999999,42.291526
51,1844,Weld St @ Willow St,-71.1554659999999,42.292171
51,1845,Weld St @ Manthorne Rd,-71.154376,42.2928670000001
51,1846,Weld St @ Russett Rd,-71.1523589999999,42.2929740000001
51,1847,Weld St @ Church St,-71.1494739999999,42.2930030000001
51,1848,Weld St @ Parklawn Rd,-71.146169,42.2936960000001
51,1849,Weld St @ Burnside Ave,-71.144645,42.293263
51,1850,Weld St @ Ravenna Rd,-71.1433249999999,42.2931070000001
51,1851,Weld St @ Cerdan Ave,-71.140076,42.293532
51,1852,Weld St @ Colby Rd,-71.138855,42.2936700000001
51,1853,Weld St opp Wedgewood Rd,-71.135669,42.2944120000001
51,1856,170 Walter St,-71.130566,42.2947280000001
51,1857,144 Walter St opp Mendum St,-71.1305409999999,42.292587
51,1860,Walter St @ Hewlett St,-71.134177,42.2889630000001
51,1867,Robert St @ Belgrade Ave,-71.131114,42.2868510000001
51,1871,Walter St @ Mendum St,-71.130414,42.292623
51,1872,Opp 174 Walter St,-71.130421,42.2947580000001
51,1875,Weld St @ Wedgewood Rd,-71.1356309999999,42.2945290000001
51,1876,Weld St @ Alward Rd,-71.1390059999999,42.2937420000001
51,1877,Weld St @ Morey St,-71.140097,42.2936270000001
51,1878,Weld St @ Gretter Rd,-71.143458,42.293171
51,1879,Weld St @ Lantern Ln,-71.144283,42.293284
51,1880,Weld St @ Parklawn Rd,-71.1458959999999,42.293706
51,1881,Weld St @ Church St,-71.149288,42.2931510000001
51,1882,Weld St @ Russet Rd,-71.152187,42.293036
51,1883,Weld St @ Manthorne Rd,-71.154234,42.2930420000001
51,1884,Weld St @ Willow St,-71.15561,42.292196
51,1885,Weld St @ Maple St,-71.157158,42.291572
51,1886,Weld St @ Avalon Rd,-71.1585499999999,42.291864
51,1887,Weld St @ Corey St,-71.1605319999999,42.291637
51,1888,Corey St @ VFW Pkwy,-71.162319,42.2932280000001
51,1889,650 VFW Pkwy,-71.158588,42.2951630000001
51,1890,286 Independence Dr,-71.157632,42.2969470000001
51,1891,Independence Dr @ Thornton Rd,-71.156897,42.298163
51,1892,Independence Dr opp Gerry Rd,-71.155447,42.2997970000001
51,1893,Grove St @ Russet Rd,-71.1537939999999,42.3012370000001
51,1895,Grove St @ South St,-71.152112,42.302621
52,1900,Centre St @ Pearl St,-71.1850259999999,42.358456
55,1921,Ipswich St @ Lansdowne St,-71.094369,42.3472350000001
55,1922,Ipswich St @ Boylston St,-71.095432,42.345285
55,1923,Boylston St @ Jersey St,-71.0977779999999,42.3446210000001
55,1924,Kilmarnock St @ Peterborough St,-71.099663,42.3431650000001
55,1925,Kilmarnock St @ Queensberry St,-71.0992869999999,42.342318
55,1926,Queensberry St @ Jersey St,-71.097113,42.342769
55,1927,Jersey St @ Boylston,-71.097768,42.344478
55,1928,Ipswich St @ Boylston St,-71.095339,42.345375
55,1929,Ipswich St opp Lansdowne St,-71.094218,42.347221
55,1931,Ipswich St @ Boylston St,-71.0893619999999,42.346945
55,1932,Boylston St @ Saint Cecilia St,-71.086869,42.3474840000001
38,1936,South St @ Spalding St,-71.114635,42.3037410000001
38,1937,South St @ Child St,-71.115144,42.306545
35,1939,775 Centre St,-71.1153449999999,42.3099490000001
35,1940,Centre St @ Aldworth St,-71.118664,42.3087990000001
35,1941,Centre St @ Orchard St,-71.1200019999999,42.308976
60,1965,Boylston St @ Star Market - Service Rd,-71.166186,42.323161
60,1984,Boylston St @ Hammond St,-71.163979,42.3232750000001
65,1994,Winship St @ Union St,-71.1524489999999,42.346188
35,2002,Centre St @ Arborway,-71.120575,42.308948
35,2003,Centre St @ Ballard St,-71.1181099999999,42.308723
38,2006,South St @ Jamaica St,-71.115091,42.3061310000001
38,2007,South St @ St Rose St,-71.114769,42.3043960000001
71,2020,Mt Auburn St @ Story St,-71.1232699999999,42.3735150000001
71,2021,Mt Auburn St @ Ash St,-71.1256299999999,42.374356
71,2023,Mt Auburn St @ Sparks St,-71.130454,42.3747290000001
71,2025,Mt Auburn St @ Longfellow Rd,-71.133865,42.374937
71,2026,Mt Auburn St @ Traill St,-71.136647,42.375072
71,2027,Mt Auburn St opp Coolidge Ave,-71.13958,42.3749720000001
71,2028,Mt Auburn St @ Brattle St,-71.143947,42.3753970000001
71,2030,Mt Auburn St @ Homer Ave,-71.148307,42.374974
71,2030,Mt Auburn St @ Homer Ave,-71.148307,42.374974
71,2032,Mt Auburn St @ Saint Marys St,-71.15244,42.3738520000001
71,2033,Mt Auburn St @ Keenan St,-71.1550319999999,42.372849
71,2034,Mt Auburn St @ Kimball Rd,-71.157636,42.371608
71,2036,Mt Auburn St @ Upland Rd,-71.1606169999999,42.3703980000001
71,2037,Mt Auburn St @ Winsor Ave,-71.163428,42.3708990000001
71,2038,Mt Auburn St @ Adams Ave,-71.166657,42.370076
71,2040,Mt Auburn St @ Amherst Rd,-71.171006,42.370094
71,2042,Mt Auburn St @ Russell Ave,-71.176239,42.36848
71,2043,Mt Auburn St @ Marshall St,-71.1790099999999,42.367918
71,2044,Mt Auburn St @ Summer St,-71.181318,42.366608
71,2046,Mt Auburn St @ Main St,-71.1841889999999,42.3653560000001
71,2047,Mt Auburn St @ Bates Rd E,-71.174098,42.369064
71,2048,Mt Auburn St @ Main St,-71.183729,42.365489
71,2049,Mt Auburn St @ Patten St,-71.181182,42.366566
71,2050,Mt Auburn St @ Parker St,-71.178736,42.367937
71,2051,Mt Auburn St @ Franklin St,-71.176092,42.368385
71,2052,Mt Auburn St @ Walnut St,-71.17398,42.368947
71,2054,Mt Auburn St @ Boylston St,-71.1707289999999,42.370002
71,2056,Mt Auburn St @ Winthrop St,-71.1673289999999,42.369923
71,2057,Mt Auburn St @ School St,-71.164816,42.370622
71,2058,Mt Auburn St @ Adams St,-71.161446,42.3704010000001
71,2060,Mt Auburn St @ Bigelow Ave,-71.157955,42.3711860000001
71,2061,Mt Auburn St opp Keenan St,-71.154724,42.372823
71,2062,Mt Auburn St @ Cottage St,-71.152276,42.37377
71,2064,Mt Auburn St opp Homer Ave,-71.147889,42.3749080000001
71,2066,Mt Auburn St opp Brattle St,-71.143859,42.3753060000001
71,2067,Mt Auburn St @ Coolidge Ave,-71.139853,42.374899
71,2068,Mt Auburn St opp Traill St,-71.1365509999999,42.374987
71,2070,Mt Auburn St @ Mt Auburn Hospital,-71.133231,42.3747720000001
71,2070,Mt Auburn St @ Mt Auburn Hospital,-71.133231,42.3747720000001
71,2070,Mt Auburn St @ Mt Auburn Hospital,-71.133231,42.3747720000001
71,2071,Mt Auburn St opp Sparks St,-71.130712,42.374625
71,2073,Mt Auburn St @ Brewer St,-71.1247519999999,42.3739560000001
71,2074,Mt Auburn St @ University Rd,-71.123226,42.3733560000001
71,2076,Harvard,-71.1190809999999,42.3742790000001
71,2077,Aberdeen Ave @ Mt Auburn St,-71.145767,42.375543
75,2080,Huron Ave @ Larch Rd,-71.143606,42.3801710000001
75,2082,Huron Ave @ Lakeview Ave,-71.1401109999999,42.3808510000001
75,2083,Huron Ave @ Gurney St,-71.1379259999999,42.381198
75,2085,Huron Ave @ Appleton St,-71.13318,42.3813670000001
75,2090,Huron Ave @ Appleton St,-71.134626,42.381553
75,2092,Huron Ave @ Chilton St,-71.137529,42.3813230000001
75,2093,Huron Ave @ Lakeview Ave,-71.1402179999999,42.380926
75,2095,Huron Ave @ Larch Rd,-71.14372,42.3802420000001
75,2096,Aberdeen Ave @ Huron Ave,-71.147434,42.378569
75,2097,Aberdeen Ave @ Aberdeen Way,-71.146734,42.376937
71,2098,Aberdeen Ave @ Mt Auburn St,-71.146112,42.375483
73,2099,Trapelo Rd @ Church St,-71.1899759999999,42.3875
73,2099,Trapelo Rd @ Church St,-71.1899759999999,42.3875
73,2101,Trapelo Rd @ Sycamore St,-71.186867,42.386537
73,2102,Trapelo Rd @ Beech St,-71.183865,42.385458
73,2103,Trapelo Rd @ Walnut St,-71.182453,42.384554
73,2104,Trapelo Rd @ Bartlett Ave,-71.179928,42.3823150000001
73,2106,Trapelo Rd @ Williston Rd - Cushing Square,-71.1752739999999,42.3807370000001
73,2107,36 Trapelo Rd,-71.172859,42.3795670000001
73,2108,Trapelo Rd @ Belmont St - Benton Square,-71.170735,42.3782790000001
73,2108,Trapelo Rd @ Belmont St - Benton Square,-71.170735,42.3782790000001
73,2110,Belmont St opp Payson Rd,-71.166499,42.377172
73,2112,Belmont St @ Langdon Ave,-71.163247,42.3768010000001
73,2113,Belmont St @ Woodleigh Rd,-71.160444,42.376564
73,2115,Belmont St @ Prentiss St,-71.156581,42.375529
73,2117,Belmont St @ St. Mary's St,-71.151444,42.374822
73,2118,Belmont St @ Cushing St,-71.151511,42.3749230000001
73,2119,Belmont St @ Sullivan Rd,-71.154041,42.375167
73,2121,Belmont St @ Marlboro St,-71.158236,42.3761480000001
73,2122,Belmont St @ Falmouth St,-71.1605979999999,42.3767300000001
73,2123,Belmont St @ School St,-71.163357,42.3769300000001
73,2124,Belmont St @ Payson Rd,-71.16635,42.377259
73,2125,Belmont St @ Oakley Rd,-71.169304,42.3777420000001
73,2126,Trapelo Rd @ Willow St,-71.171295,42.378811
73,2127,Trapelo Rd opp Williston Rd - Cushing Square,-71.174947,42.380749
73,2128,Trapelo Rd opp Poplar St,-71.178011,42.381743
73,2129,Trapelo Rd @ Slade St,-71.1801859999999,42.382659
73,2130,Trapelo Rd opp Walnut St,-71.182408,42.384658
73,2131,Trapelo Rd @ Beech St,-71.184073,42.385656
73,2133,Trapelo Rd @ Waverley St,-71.188115,42.3870890000001
73,2134,Church St @ Lexington St,-71.1906089999999,42.3871940000001
73,2134,Church St @ Lexington St,-71.1906089999999,42.3871940000001
74,2137,396 Concord Ave,-71.175123,42.3955980000001
74,2139,Concord Ave @ Cottage St,-71.1708169999999,42.3943340000001
74,2140,Concord Ave @ Myrtle St,-71.169453,42.393894
74,2141,Concord Ave @ Orchard St,-71.167091,42.3932070000001
74,2142,Concord Ave @ Louise Rd,-71.165387,42.3927100000001
74,2143,Concord Ave @ Edgemoor Rd,-71.1638159999999,42.392231
74,2144,Concord Ave @ Watson Rd,-71.161839,42.39169
75,2145,Bright Rd @ Gale Rd,-71.161128,42.3889800000001
75,2146,Bright Rd @ Washington St,-71.16113,42.3865730000001
74,2148,Concord Ave @ Blanchard Rd,-71.156875,42.3907580000001
74,2149,Concord Ave @ Spinelli Pl,-71.15413,42.3904630000001
74,2150,Concord Ave opp Smith Pl,-71.150772,42.3900630000001
74,2151,Concord Ave opp Moulton St,-71.147954,42.3895220000001
74,2152,Concord Ave opp Fawcett St,-71.146131,42.3891320000001
74,2153,Concord Ave opp Wheeler St,-71.1442719999999,42.388652
74,2154,Concord Ave opp New St,-71.1413219999999,42.38667
74,2155,Concord Ave opp Fern St,-71.1390049999999,42.385954
74,2156,Concord Ave @ Alpine St,-71.13741,42.3852410000001
74,2158,Concord Ave @ Walden St,-71.134224,42.383832
74,2159,Concord Ave @ Huron Ave,-71.13116,42.3824090000001
74,2160,Concord Ave @ Buckingham St,-71.1289879999999,42.3811370000001
74,2161,Concord Ave @ Parker St,-71.12742,42.3802870000001
74,2162,Concord Ave @ Craigie St,-71.125867,42.3794280000001
74,2163,Concord Ave @ Garden St,-71.1238779999999,42.3783710000001
68,2166,Quincy St @ Broadway opp Fogg Museum,-71.11457,42.3746850000001
68,2167,Quincy St @ Harvard St,-71.115202,42.372401
66,2168,Massachusetts Ave @ Johnston Gate,-71.118511,42.3751310000001
66,2168,Massachusetts Ave @ Johnston Gate,-71.118511,42.3751310000001
74,2170,Garden St opp Mason St,-71.121975,42.3765230000001
74,2172,Concord Ave @ Chauncy St,-71.124379,42.3787400000001
74,2173,Concord Ave opp Craigie St,-71.125597,42.379397
74,2174,Concord Ave @ Bond St,-71.127371,42.3803770000001
74,2175,Concord Ave opp Buckingham St,-71.1287179999999,42.381103
74,2176,Concord Ave @ Huron Ave,-71.130813,42.3823170000001
74,2177,Concord Ave @ Walden St,-71.134151,42.383906
74,2179,Concord Ave @ Alpine St,-71.137421,42.3853540000001
74,2180,Concord Ave @ Birch St,-71.139558,42.386307
74,2181,Concord Ave @ New St,-71.141497,42.387214
74,2182,Concord Ave @ Wheeler St,-71.144305,42.388759
74,2183,Concord Ave @ Fawcett St,-71.145861,42.3891620000001
74,2184,Concord Ave @ Moulton St,-71.1482789999999,42.389704
74,2185,Concord Ave @ Smith Pl,-71.1505089999999,42.390114
74,2186,Concord Ave @ Spinelli Pl,-71.153875,42.390563
74,2187,799 Concord Ave,-71.156945,42.3909400000001
75,2189,Bright Rd @ Washington St,-71.161007,42.3866390000001
75,2190,Bright Rd @ Glenn Rd,-71.160998,42.389034
74,2191,Concord Ave @ Trowbridge St,-71.1612049999999,42.391782
74,2192,Concord Ave opp Edgemoor Rd,-71.163804,42.3925080000001
74,2193,Concord Ave opp Louise Rd,-71.165334,42.392976
74,2194,Concord Ave opp Orchard St,-71.167293,42.393536
74,2195,Concord Ave opp Myrtle St,-71.169411,42.394144
74,2196,Concord Ave opp Cottage St,-71.170464,42.394481
74,2197,385 Concord Ave,-71.1726639999999,42.3951490000001
74,2198,Concord Ave @ Leonard St - Belmont Center Sta,-71.1752739999999,42.395829
68,2217,454 Broadway,-71.1116749999999,42.3734490000001
68,2218,Broadway @ Ellery St,-71.109863,42.372759
68,2220,Broadway @ Crawford St,-71.1069689999999,42.371602
68,2221,Broadway @ Lee St,-71.1046689999999,42.3706970000001
68,2222,Broadway @ Inman St,-71.102783,42.3699500000001
68,2223,Broadway @ Inman St,-71.102797,42.3700620000001
68,2224,Broadway @ Fayette St,-71.104598,42.370776
68,2225,Broadway @ Highland Ave,-71.106979,42.3717120000001
68,2226,Broadway @ Ellery St,-71.109589,42.372755
64,2228,Broadway @ Galileo Way,-71.089846,42.3648220000001
64,2231,Main St @ Kendall Station - Red Line,-71.086243,42.362517
77,2250,Massachusetts Ave @ Daniels St,-71.17941,42.4241230000001
77,2251,Massachusetts Ave @ Appleton St,-71.1762639999999,42.42357
77,2252,Massachusetts Ave @ Quincy St,-71.172697,42.4217820000001
77,2254,Massachusetts Ave @ Menotomy Rd,-71.170082,42.420375
77,2255,Massachusetts Ave @ Mt Vernon St,-71.1671259999999,42.4188770000001
77,2256,Massachusetts Ave @ Lockeland Ave,-71.163646,42.417292
77,2257,Massachusetts Ave @ Newman Way,-71.160538,42.416745
67,2258,Massachusetts Ave @ Academy St,-71.156708,42.41619
67,2259,Massachusetts Ave @ Peg Spengler Way,-71.154499,42.415822
77,2260,Massachusetts Ave @ Broadway,-71.1510709999999,42.414272
77,2261,Massachusetts Ave @ Avon Pl,-71.149683,42.4131300000001
77,2262,Massachusetts Ave @ Wyman Terr,-71.14848,42.4114920000001
77,2263,Massachusetts Ave @ Linwood St,-71.147239,42.409538
77,2264,260 Massachusetts Ave,-71.1448119999999,42.407678
77,2265,Massachusetts Ave @ Lake St,-71.142456,42.405767
77,2266,Massachusetts Ave @ Milton St,-71.140412,42.404163
77,2268,Massachusetts Ave @ Magoun St,-71.1353129999999,42.400497
77,2269,Massachusetts Ave @ Cottage Park Ave-Matignon,-71.133125,42.399436
77,2270,Massachusetts Ave @ Cedar St,-71.13112,42.397954
77,2271,Massachusetts Ave @ Cameron Ave,-71.130055,42.3974190000001
77,2273,Massachusetts Ave @ Churchill Ave  - Matignon,-71.133258,42.399844
77,2274,Massachusetts Ave @ Gladstone St,-71.135166,42.4006420000001
77,2275,Massachusetts Ave @ Teel St,-71.13819,42.4026250000001
77,2276,Massachusetts Ave @ Trowbridge St,-71.140097,42.404121
77,2277,Massachusetts Ave opp Lake St,-71.142554,42.4060660000001
77,2278,Massachusetts Ave @ Harlow St,-71.1450419999999,42.408008
77,2279,Massachusetts Ave @ Foster St,-71.146899,42.4095060000001
77,2280,Massachusetts Ave @ Wyman St,-71.1484819999999,42.411841
77,2281,Massachusetts Ave @ Franklin St,-71.14941,42.4132900000001
77,2282,Massachusetts Ave @ Medford St,-71.151369,42.414833
67,2283,Massachusetts Ave @ Mystic St,-71.153427,42.415673
67,2284,Massachusetts Ave @ Central St,-71.156865,42.4163370000001
77,2285,Massachusetts Ave @ Willow Ct,-71.159867,42.4167570000001
77,2286,905 Massachusetts Ave,-71.1647139999999,42.417833
77,2287,Massachusetts Ave @ Prentiss Rd,-71.167129,42.4189870000001
77,2288,Massachusetts Ave @ Brattle St,-71.169933,42.420463
77,2290,Massachusetts Ave @ Hobbs Ct,-71.172726,42.4220010000001
77,2291,Massachusetts Ave opp Appleton St,-71.17585,42.423592
77,2292,Massachusetts Ave opp Daniels St,-71.179491,42.424217
77,2293,Massachusetts Ave @ Park Ave,-71.182803,42.4243280000001
77,2296,Massachusetts Ave @ Norris St,-71.128749,42.39586
77,2297,Massachusetts Ave @ Haskell St,-71.127033,42.394341
77,2298,Massachusetts Ave @ Rindge Ave,-71.1252009999999,42.3926670000001
77,2299,Massachusetts Ave @ Walden St,-71.123209,42.3911640000001
77,2300,Massachusetts Ave opp Beech St,-71.120711,42.389913
77,2304,Massachusetts Ave @ Linnaean St,-71.119594,42.3845150000001
77,2305,Massachusetts Ave @ Shepard St,-71.1199349999999,42.38164
77,2307,Massachusetts Ave @ Waterhouse St,-71.120289,42.3778100000001
77,2310,Massachusetts Ave opp Waterhouse St,-71.119941,42.3778050000001
77,2312,Massachusetts Ave @ Wendell St,-71.119571,42.381631
77,2314,Massachusetts Ave @ Exeter Park,-71.1192629999999,42.384891
77,2316,Massachusetts Ave @ Davenport St,-71.119806,42.389308
77,2316,Massachusetts Ave @ Davenport St,-71.119806,42.389308
77,2318,Massachusetts Ave opp Walden St,-71.123104,42.3914280000001
77,2319,Massachusetts Ave opp Rindge Ave,-71.1249129999999,42.392855
77,2320,Massachusetts Ave @ Dover St,-71.1267989999999,42.3945140000001
78,2323,Park Circle @ Park Ave,-71.1803839999999,42.415262
78,2323,Park Circle @ Park Ave,-71.1803839999999,42.415262
78,2323,Park Circle @ Park Ave,-71.1803839999999,42.415262
78,2324,Park Ave @ Wachusett Ave,-71.182156,42.4135610000001
78,2326,East Service Rd @ Park Ave Shelter,-71.1813569999999,42.410375
78,2327,East Service Rd @ Lamoine St,-71.178929,42.4101020000001
78,2328,East Service Rd @ Clifton St - Pedestrian Bridge,-71.174928,42.409187
78,2329,East Service Rd @ Radcliffe Rd,-71.173726,42.40882
78,2331,East Service Rd @ Pleasant St,-71.165109,42.4054090000001
78,2332,Brighton St @ Pleasant St,-71.1662239999999,42.40387
78,2333,Brighton St @ Cowdin St,-71.164751,42.402316
78,2334,Brighton St @ Cross St,-71.163536,42.40108
78,2335,Brighton St @ Coolidge Rd,-71.162942,42.4000790000001
78,2336,Brighton St @ Eliot Rd,-71.1611559999999,42.3981860000001
78,2337,Brighton St opp Vale Rd,-71.159192,42.3969230000001
78,2338,Brighton St @ Hittinger St,-71.1587489999999,42.39552
78,2339,Blanchard Rd opp Normandy Ave,-71.15793,42.39293
78,2340,Blanchard Rd @ Merrill Ave,-71.1575769999999,42.3917960000001
78,2341,Blanchard Rd opp Merrill Ave,-71.1573969999999,42.391641
78,2342,Blanchard Rd @ Normandy Ave,-71.157819,42.3930070000001
78,2343,Brighton St @ Flanders Rd,-71.158587,42.3954890000001
78,2344,Brighton St @ Pond St,-71.1593579999999,42.397366
78,2345,Brighton St opp Statler Rd,-71.1616759999999,42.398539
78,2346,Brighton St @ Oliver Rd,-71.16283,42.4001230000001
78,2347,Cross St @ Staunton Rd,-71.162861,42.4013110000001
78,2349,Cross St @ Gilmore Rd,-71.1597839999999,42.403357
78,2350,Lake St @ Village Ln,-71.1606849999999,42.4039530000001
78,2351,Lake St opp Milton St,-71.162729,42.404562
78,2353,West Service Rd @ Venner Rd,-71.1637679999999,42.406193
78,2354,West Service Rd @ Highland Ave,-71.1741289999999,42.409611
78,2355,West Service Rd @ Pedestrian Bridge,-71.175919,42.410149
78,2356,West Service Rd @ Hillcrest St,-71.177309,42.410504
78,2357,West Service Rd @ Bellington St,-71.179647,42.4109080000001
78,2358,West Service Rd @ Park Ave,-71.1815599999999,42.411246
78,2359,Park Ave @ Cedar Ave,-71.1818719999999,42.4125690000001
78,2360,Park Ave opp Wachusett Ave,-71.181921,42.4138340000001
78,2361,Park Circle @ Eastern Ave,-71.1795049999999,42.4145140000001
80,2362,Medford St @ Massachusetts Ave,-71.150834,42.4150010000001
80,2363,Medford St @ Lewis Ave,-71.147613,42.416863
80,2364,Medford St opp Sherborn St,-71.146723,42.4176580000001
80,2365,Medford St @ Hamlet St,-71.145911,42.418507
80,2366,Medford St opp Hayes St - Medford Line,-71.144413,42.420277
80,2367,High St @ Jerome St,-71.1418439999999,42.4204920000001
80,2368,High St @ Monument St,-71.138772,42.421009
80,2369,Boston Ave @ Harvard Ave,-71.1346569999999,42.4197830000001
80,2370,Boston Ave @ Holton St,-71.1331029999999,42.418889
80,2371,Boston Ave @ Arlington St,-71.1315269999999,42.4179070000001
80,2372,Boston Ave @ Mystic Valley Pkwy,-71.129317,42.416435
80,2373,Boston Ave @ Harris Rd,-71.127823,42.4154530000001
80,2374,Boston Ave @ North St,-71.125938,42.4141980000001
80,2375,Boston Ave @ Hillsdale Rd,-71.123928,42.412875
80,2376,Boston Ave @ Winthrop St,-71.1216709999999,42.4113990000001
80,2377,Boston Ave @ Fairmount St,-71.120121,42.4104340000001
80,2378,Boston Ave @ Tufts Garage,-71.118124,42.408761
80,2379,College Ave @ Boston Ave,-71.117023,42.40653
80,2380,College Ave @ Professors Row,-71.117466,42.4055490000001
80,2380,College Ave @ Professors Row,-71.117466,42.4055490000001
80,2381,College Ave @ Powder House Sq,-71.116923,42.4016530000001
80,2385,Medford St @ Central St,-71.10069,42.392521
80,2386,Medford St @ Sycamore St,-71.099344,42.391152
80,2388,Medford St @ School St,-71.097269,42.3891530000001
80,2389,Pearl St @ Skilton Ave,-71.0947639999999,42.387777
80,2390,Pearl St @ Walnut St,-71.093312,42.3873360000001
80,2391,Pearl St @ McGrath Hwy,-71.090933,42.3865950000001
80,2392,Cross St @ Alston St,-71.090089,42.382591
80,2393,Cross St @ Oliver St,-71.0889789999999,42.384258
80,2394,Pearl St @ Cross St,-71.088,42.3857800000001
80,2395,Pearl St @ McGrath Hwy,-71.090342,42.386513
80,2396,Pearl St @ Walnut St,-71.093038,42.3873540000001
80,2397,Pearl St @ Bradley St,-71.094619,42.3878340000001
80,2398,Medford St @ School St,-71.097025,42.3890670000001
80,2400,Medford St @ Sycamore St,-71.099284,42.3912560000001
80,2401,Medford St @ Central St,-71.1006189999999,42.392616
80,2402,Medford St @ Bartlett St,-71.101882,42.39424
80,2404,Medford St @ Broadway - Magoun Sq,-71.104141,42.3971070000001
80,2405,College Ave @ Warner St,-71.1168079999999,42.4017210000001
80,2406,College Ave @ Dearborn Rd,-71.117309,42.4052
80,2407,College Ave @ Boston Ave,-71.1167859999999,42.406689
80,2408,Boston Ave @ Tufts Garage,-71.1180199999999,42.4088160000001
80,2409,372 Boston Ave opp Fairmount St,-71.120102,42.4105430000001
80,2410,Boston Ave @ Winthrop St,-71.121651,42.4115090000001
80,2411,Boston Ave @ Piggott Rd,-71.123662,42.4128240000001
80,2412,Boston Ave @ North St,-71.125672,42.4141510000001
80,2413,196 Boston Ave opp Stoughton St,-71.127804,42.4155660000001
80,2414,Boston Ave @ Mystic Valley Pkwy,-71.129295,42.416547
80,2415,Boston Ave @ Arlington St,-71.1312609999999,42.417857
80,2416,Boston Ave @ Holton St,-71.1328329999999,42.4188500000001
80,2417,Boston Ave @ Harvard Ave,-71.1343899999999,42.419744
80,2418,Boston Ave @ High St,-71.13699,42.4212640000001
80,2419,High St @ Pitcher Ave,-71.1391829999999,42.4210380000001
80,2420,High St @ Mystic Valley Pkwy,-71.14185,42.4206560000001
80,2421,Medford St @ Hayes St,-71.144557,42.420311
80,2422,Medford St @ Webcowet Rd,-71.14606,42.418504
80,2423,Medford St @ Sherborn St,-71.146872,42.4176640000001
80,2424,Medford St opp Warren St,-71.148382,42.416503
83,2425,Rindge Ave @ Russell Field,-71.138336,42.39397
83,2426,Rindge Ave opp Clifton St,-71.136026,42.393628
83,2427,Rindge Ave opp Clay St,-71.134079,42.393493
83,2428,Rindge Ave @ Middlesex St,-71.1312629999999,42.393331
83,2429,Rindge Ave @ Pemberton St,-71.1253859999999,42.392521
83,2430,Somerville Ave @ Massachusetts Ave,-71.118904,42.388424
83,2431,Somerville Ave opp Beacon Terr,-71.1168509999999,42.387227
83,2432,Somerville Ave opp Elm St,-71.114425,42.385855
83,2433,Park St @ Beacon St,-71.108538,42.3803600000001
83,2435,Beacon St @ Washington St,-71.106296,42.378131
83,2436,Beacon St @ Smith Ave,-71.1050989999999,42.377147
83,2437,Beacon St @ Cooney St,-71.1039949999999,42.3762370000001
83,2438,Beacon St opp Concord Ave,-71.1025289999999,42.3749700000001
19,7,Melnea Cass Blvd @ Washington St,-71.081108,42.333043
10,14,Dorchester St @ Dorchester Ave,-71.056819,42.3296030000001
10,15,Dorchester St @ Vinton St,-71.054541,42.3307110000001
10,16,Dorchester St @ Old Colony Ave,-71.052919,42.3316290000001
10,17,Dorchester St @ E 8th St,-71.051146,42.3327170000001
10,18,180 Dorchester St opp W 7th St,-71.049528,42.3335890000001
10,19,Dorchester St @ Old Harbor St,-71.0475759999999,42.3344950000001
10,20,Dorchester St @ E Broadway,-71.0457279999999,42.335377
10,46,Dorchester St @ Broadway,-71.045901,42.3354570000001
10,47,Dorchester St @ W 5th St,-71.04774,42.3345880000001
10,48,Dorchester St @ W 6th St,-71.048751,42.334118
10,49,Dorchester St @ W 8th St,-71.051338,42.3327810000001
10,50,Dorchester St @ Old Colony Ave,-71.053061,42.3316960000001
10,51,Dorchester St @ Middle St,-71.054677,42.330763
10,52,Dorchester St @ Dorchester Ave,-71.0568079999999,42.3297400000001
15,55,Washington St @ Massachusetts Ave,-71.077214,42.3363610000001
15,60,Washington St @ Lenox St,-71.078951,42.3349630000001
354,65,State St @ Washington Mall - State St Sta,-71.0574809999999,42.358863
36,120,Rivermoor St @ Industrial Park,-71.177808,42.278446
36,129,Rivermoor St @ Charles Park Rd,-71.175667,42.278959
24,137,Charles Park Rd @ Rivermoor St,-71.175492,42.2789070000001
43,168,Tremont St @ Appleton St,-71.069114,42.3466990000001
10,176,Dartmouth St opp Back Bay Sta,-71.0760349999999,42.3473430000001
39,177,Saint James Ave @ Arlington St,-71.070502,42.3510390000001
18,180,Bay St @ Auckland St,-71.056723,42.311134
11,249,B St @ Silver St,-71.054339,42.340515
11,250,B St @ W 5th St,-71.0554769999999,42.339575
11,251,B St @ W 6th St,-71.0561989999999,42.338955
11,252,W 7th St @ C St,-71.055505,42.337229
11,253,W 7th St @ D St,-71.054025,42.3362520000001
11,254,W 7th St @ E St,-71.052445,42.33525
11,255,W 7th St @ F St,-71.050899,42.33425
11,256,W 7th St @ Dorchester St,-71.049923,42.3336120000001
11,258,E 8th St @ Dorchester St,-71.05098,42.3326730000001
11,259,E 8th St @ Old Harbor St,-71.047219,42.331193
11,260,E 8th St @ Covington St,-71.045994,42.3312040000001
11,261,E 8th St @ G St,-71.043908,42.331243
11,262,E 8th St @ H St,-71.041552,42.331302
11,263,E 8th St @ I St,-71.0399609999999,42.331328
11,264,E 8th St @ K St,-71.0374169999999,42.331379
11,265,E 8th St @ L St,-71.03539,42.3314090000001
11,266,E 8th St @ M St,-71.033352,42.331439
11,267,E 8th St @ N St,-71.0312989999999,42.3314770000001
11,268,Columbia Rd @ O St,-71.0290449999999,42.331782
11,269,W 7th St @ B St,-71.0567819999999,42.338065
11,270,Columbia Rd @ P St,-71.027186,42.3324870000001
11,275,E 8th @ Columbia Rd,-71.030048,42.3315650000001
11,277,E 8th St @ M St,-71.033111,42.331537
11,278,E 8th St @ L St,-71.0351489999999,42.3315040000001
11,279,E 8th St @ K St,-71.037505,42.331469
11,280,E 8th St @ I St,-71.039724,42.3314260000001
11,281,E 8th St @ H St,-71.041311,42.3314050000001
11,282,E 8th St @ G St,-71.044314,42.331329
11,283,E 8th St @ Covington St,-71.046082,42.3312950000001
11,284,E 8th St @ Old Harbor St,-71.047299,42.331286
11,285,E 8th St @ Mercer St,-71.048888,42.3314950000001
11,286,E 8th St @ Dorchester St,-71.050957,42.3327820000001
11,288,W 6th St @ F St,-71.0499,42.334842
11,289,W 6th St @ E St,-71.051409,42.335827
11,290,W 6th St @ D St,-71.053007,42.3368320000001
11,291,W 7th St @ D St,-71.054006,42.3363620000001
11,292,W 7th St @ C St,-71.055242,42.3371810000001
11,293,W 7th @ B Street,-71.05677,42.338194
11,295,P St @ E 5th St,-71.0271959999999,42.3341110000001
11,296,P St @ Columbia Rd,-71.027166,42.332657
18,298,Dorchester Ave opp Kemp St,-71.0569379999999,42.326944
18,299,Dorchester Ave @ Howell St,-71.056909,42.324666
18,300,Dorchester Ave @ Dorset St,-71.056879,42.3232370000001
18,301,Dorchester Ave @ Mt Vernon St,-71.056845,42.3217080000001
18,303,Dorchester Ave @ Edison Green,-71.0568239999999,42.3199270000001
18,304,Dorchester Ave @ Cottage St,-71.0567849999999,42.31861
18,305,Dorchster Ave @ Howes St,-71.056787,42.317797
18,306,Dorchester Ave @ Mayfield St,-71.0567379999999,42.316398
18,308,Dorchester Ave @ Pearl St,-71.056864,42.3147240000001
18,309,Dorchester Ave @ Thornley Rd,-71.057082,42.313795
18,312,Auckland St @ Dewar St,-71.056946,42.309914
18,317,Dorchester Ave @ Hancock St,-71.0583589999999,42.3081940000001
18,318,Dorchester Ave @ Linden St,-71.058836,42.306096
18,319,Dorchester Ave @ Ellet St,-71.0592139999999,42.304333
18,320,Dorchester Ave @ Adams St,-71.059816,42.3016480000001
15,322,Geneva Ave opp Vinson St,-71.064001,42.299071
15,325,Park St Busway @ Dorchester Ave,-71.060935,42.298249
15,326,Dorchester Ave opp Gibson St,-71.0610819999999,42.297293
15,327,Dorchester Ave @ Melville Ave,-71.0613999999999,42.2961560000001
15,328,1621 Dorchester Ave opp Dix St,-71.061707,42.2951550000001
15,329,Dorchester Ave @ Centre St,-71.062127,42.2937440000001
15,330,Dorchester Ave @ Cheverus Rd,-71.062532,42.2922990000001
15,331,Dorchester Ave opp Shepton St,-71.063344,42.2894220000001
15,332,Dorchester Ave @ Banton St,-71.063639,42.2883130000001
15,337,Dorchester Ave @ Msgr Lydon Way,-71.0636,42.2880000000001
15,338,Dorchester Ave @ Shepton St,-71.0632239999999,42.2893550000001
15,339,Dorchester Ave @ King St,-71.062505,42.2919370000001
15,340,Dorchester Ave @ Centre St,-71.0620499999999,42.293551
15,341,Dorchester Ave @ Dix St,-71.061634,42.2949570000001
15,342,Dorchester Ave @ Parkman St,-71.061336,42.29603
15,343,Dorchester Ave @ Gibson St,-71.061006,42.2971010000001
18,345,Dorchester Ave opp Charles St,-71.059987,42.3006480000001
18,346,Dorchester Ave @ Adams St,-71.059788,42.3014150000001
18,347,Dorchester Ave @ Kimball St,-71.059131,42.3041410000001
18,348,Dorchester Ave @ Linden St,-71.058749,42.3058980000001
18,349,Dorchester Ave @ Hoyt St,-71.0582219999999,42.3082420000001
18,350,Dorchester Ave @ Dewar St,-71.057799,42.3100880000001
18,351,Dorchester Ave @ Savin Hill Ave,-71.0571409999999,42.3129970000001
18,352,Dorchester Ave @ Belfort St,-71.056616,42.3153110000001
18,353,Dorchester Ave @ Romsey St,-71.056606,42.3162160000001
18,354,Dorchester Ave @ Crescent Ave,-71.0566459999999,42.3187510000001
18,355,Dorchester Ave @ Columbia Rd,-71.056709,42.320615
18,357,Dorchester Ave @ Locust St,-71.056756,42.3232990000001
18,358,Dorchester Ave opp Howell St,-71.056787,42.3247260000001
18,359,Dorchester Ave @ Kemp St,-71.0568059999999,42.3267650000001
16,362,Columbia Rd @ Holden St,-71.06357,42.3187100000001
22,367,Talbot Ave @ Dorchester Ave,-71.064355,42.286095
22,369,Talbot Ave @ Welles Ave,-71.067039,42.289135
22,371,Talbot Ave @ Centre St,-71.070633,42.2901700000001
22,371,Talbot Ave @ Centre St,-71.070633,42.2901700000001
22,372,Talbot Ave @ Southern Ave,-71.073109,42.29058
22,373,Talbot Ave @ Spencer St,-71.0752869999999,42.2912290000001
22,374,Talbot Ave @ Talbot Station,-71.077978,42.292015
22,375,Talbot Ave @ Bernard St,-71.079404,42.2924360000001
22,376,Talbot Ave @ Kerwin St,-71.082526,42.293345
22,378,Talbot Ave @ Nightingale St,-71.086043,42.294378
14,381,Blue Hill Ave @ Wales St,-71.086576,42.298519
14,382,Blue Hill Ave @ Charlotte St,-71.085882,42.300527
14,383,Blue Hill Ave @ Ellington St,-71.085185,42.3027680000001
14,384,Blue Hill Ave @ Pasadena Rd,-71.08439,42.3059390000001
14,385,Blue Hill Ave @ Castlegate Rd,-71.08374,42.307446
14,386,Warren St @ Sunderland St,-71.083162,42.310509
14,386,Warren St @ Sunderland St,-71.083162,42.310509
14,387,Warren St @ Intervale St,-71.08298,42.3123170000001
14,388,Warren St @ Gaston St,-71.08356,42.313452
14,390,Warren St @ Quincy St,-71.082891,42.3162570000001
10,392,Warren St @ Maywood St,-71.081788,42.318157
10,393,Warren St @ Woodbine St,-71.08138,42.319956
10,393,Warren St @ Woodbine St,-71.08138,42.319956
10,394,Warren St @ Waverly St,-71.081813,42.321585
10,395,Warren St @ Whiting St,-71.082602,42.3239090000001
10,396,Warren St @ Moreland St,-71.0832349999999,42.3257330000001
10,401,Warren St @ Walnut Ave,-71.082883,42.323923
10,404,Warren St opp Waverly St,-71.082102,42.321536
10,404,Warren St opp Waverly St,-71.082102,42.321536
10,405,Warren St opp Woodbine St,-71.081628,42.3199320000001
10,405,Warren St opp Woodbine St,-71.081628,42.3199320000001
10,406,Warren St @ ML King Blvd,-71.08212,42.318133
10,407,Warren St @ Townsend St,-71.0830319999999,42.316227
10,410,Warren St @ Waumbeck St,-71.083653,42.3132620000001
10,411,Warren St @ Brunswick St,-71.082984,42.3117050000001
10,412,Warren St @ Crawford St,-71.0832619999999,42.3104210000001
10,413,Blue Hill Ave @ Wayne St,-71.08442,42.3068880000001
10,414,Blue Hill Ave @ Seaver St,-71.084754,42.3056490000001
14,415,Blue Hill Ave @ Franklin Park Rd,-71.08537,42.303293
14,416,Blue Hill Ave opp McLellan St,-71.085877,42.301829
22,417,Blue Hill Ave @ American Legion Hwy,-71.087228,42.2977490000001
22,419,Blue Hill Ave @ Angell St,-71.087913,42.295595
22,420,Talbot Ave opp Nightingale St,-71.085853,42.2942160000001
22,421,Talbot Ave opp Kerwin St,-71.0823149999999,42.2931770000001
22,422,Talbot Ave @ Bernard St,-71.079788,42.292446
22,423,Talbot Ave @ Talbot Station,-71.0779919999999,42.291903
22,424,Talbot Ave @ Colonial Ave,-71.074625,42.290919
22,425,Talbot Ave @ Norfolk St,-71.072141,42.2901840000001
22,426,Talbot Ave @ Lithgow St,-71.0699749999999,42.2899430000001
22,428,Talbot Ave @ Welles Ave,-71.066969,42.288962
22,430,Talbot Ave @ Dorchester Ave,-71.064496,42.2860380000001
26,431,355 Norfolk St opp Withington St,-71.073001,42.2893470000001
26,432,Norfolk St @ Darlington St,-71.075474,42.2886980000001
26,435,Norfolk St @ Milton Ave,-71.078788,42.287206
26,436,Norfolk St @ Charles Rd,-71.079551,42.2864190000001
26,437,Washington St @ Welles Ave,-71.0710799999999,42.2880920000001
26,438,227 Norfolk St opp Stanton St,-71.080381,42.2855680000001
26,439,247 Norfolk St opp Capen St,-71.081358,42.2842140000001
26,440,Norfolk St opp Nelson St,-71.083184,42.283529
26,441,Norfolk St @ Willowwood St,-71.085274,42.2827080000001
26,443,Norfolk St @ Morton St,-71.0869739999999,42.2816910000001
26,445,Norfolk St @ Morton St,-71.086249,42.2821900000001
26,446,Norfolk St @ Nelson St,-71.083052,42.2834760000001
26,447,Norfolk St @ Capen St,-71.081229,42.284161
26,448,Norfolk St @ Stanton St,-71.0803999999999,42.2853630000001
26,449,Norfolk St @ Thetford Ave,-71.079593,42.2862190000001
26,450,Norfolk St @ Milton Ave,-71.07864,42.287206
26,452,Norfolk St @ Peacevale Rd,-71.0765969999999,42.288216
26,453,Norfolk St @ Chipman St,-71.074845,42.288781
26,454,Norfolk St @ Withington St,-71.073139,42.2891720000001
26,455,Norfolk St @ Epping St,-71.0723839999999,42.289812
23,457,Washington St @ Kenwood St,-71.0716409999999,42.2917640000001
23,458,Washington St @ Melville Ave,-71.071786,42.2934020000001
23,460,Washington St @ Park St,-71.0720499999999,42.2955920000001
23,461,Washington St opp Algonquin St,-71.07253,42.2976090000001
23,463,Washington St @ Bowdoin St,-71.073723,42.2995030000001
23,465,Washington St @ Vassar St,-71.075905,42.3008990000001
23,467,Washington Street @ Four Corners / Geneva Station,-71.0784659999999,42.303388
23,467,Washington Street @ Four Corners / Geneva Station,-71.0784659999999,42.303388
19,468,Washington St @ Columbia Rd,-71.0807,42.305459
23,469,Washington St @ Joe L Smith Way,-71.081349,42.3061640000001
23,470,Washington St @ Blue Hill Ave,-71.082555,42.307571
19,471,Washington St @ Blue Hill Ave,-71.082884,42.307874
19,472,Washington St @ Jeremiah Burke HS,-71.081657,42.3062790000001
23,473,Washington St @ Columbia Rd,-71.080324,42.305298
23,475,Washington Street @ Four Corners / Geneva Station,-71.078524,42.3032240000001
23,477,Washington St @ Vassar St,-71.075843,42.3007470000001
23,478,Washington St @ Harvard St,-71.073662,42.299264
23,480,Washington St @ Algonquin St,-71.072684,42.297619
23,482,Washington St @ Park St,-71.072193,42.295398
23,483,Washington St @ Wheatland Ave,-71.071986,42.2937960000001
23,485,Washington St @ Southern Ave,-71.071762,42.2914460000001
26,487,Washington St opp Welles Ave,-71.0712169999999,42.2880430000001
26,489,Washington St opp Ashmont St,-71.071227,42.2854300000001
26,490,Washington St @ Armandine St,-71.0715729999999,42.284589
26,491,Washington St @ Stockton St,-71.071479,42.283173
26,492,Washington St @ Fuller St,-71.0713499999999,42.2820800000001
26,493,Washington St @ Ogden St,-71.071048,42.2813190000001
21,494,Gallivan Blvd @ Washington St,-71.0705129999999,42.278512
26,495,Washington St @ Codman Hill Ave,-71.0702889999999,42.2799800000001
21,496,Gallivan Blvd @ Owencroft Rd,-71.068506,42.2791960000001
21,497,Gallivan Blvd @ Milton Ave,-71.07492,42.278189
21,498,Gallivan Blvd @ Arbella Rd,-71.0768219999999,42.2783850000001
21,499,Gallivan Blvd @ Fairmount St,-71.0797679999999,42.278739
21,501,Gallivan Blvd @ Nevada St,-71.0724329999999,42.27813
21,507,Gallivan Blvd @ Morton St,-71.079721,42.2786370000001
21,508,Gallivan Blvd opp Arbella Rd,-71.076759,42.278283
21,509,Gallivan Blvd @ Oakridge St,-71.074865,42.278084
21,510,Gallivan Blvd @ Pleasant Hill Ave,-71.072571,42.2780230000001
26,511,Washington St @ Gallivan Blvd,-71.069534,42.278962
26,512,Washington St opp Codman Hill Ave,-71.0702029999999,42.2800730000001
26,514,Washington St @ Coolidge Rd,-71.0708569999999,42.2811760000001
26,515,Washington St @ Fuller St,-71.071177,42.2819230000001
26,516,Washington St @ Burt St,-71.071403,42.283442
26,517,Washington St opp Armandine St,-71.071429,42.2846190000001
26,518,Washington St @ Ashmont St,-71.071094,42.2854850000001
16,520,Arborway @ Courthouse,-71.111709,42.3011530000001
16,522,Circuit Dr @ Shattuck Hospital,-71.102356,42.30078
21,523,Morton St @ Canterbury St,-71.096524,42.29306
21,524,Morton St @ Harvard St,-71.094096,42.2876840000001
21,525,Morton St @ Greendale Rd,-71.0930109999999,42.2850300000001
21,526,Morton St @ Blue Hill Ave,-71.0912,42.2841480000001
21,527,Morton St @ Wildwood St,-71.088924,42.2828250000001
21,528,Morton St @ Norfolk St,-71.0871999999999,42.2816100000001
21,529,Morton St opp Evans St,-71.084621,42.2807790000001
21,530,Morton St @ W Selden St,-71.08285,42.2804100000001
21,532,Gallivan Blvd @ Stone Terr,-71.0683799999999,42.2791330000001
15,533,Dorchester Ave @ Gallivan Blvd,-71.065756,42.280289
15,534,Dorchester Ave @ Van Winkle St,-71.065287,42.2819390000001
15,536,Dorchester Ave @ Hurlcroft Ave,-71.065378,42.2820770000001
15,537,Dorchester Ave @ Gallivan Blvd,-71.065961,42.280016
21,540,Morton St @ Selden St,-71.082388,42.280362
21,541,Morton St @ Norfolk St,-71.0870839999999,42.2817440000001
21,542,Morton St @ Wildwood St,-71.088853,42.282924
21,543,Morton St opp Greendale Rd,-71.09208,42.284568
21,545,Morton St @ Canterbury St,-71.0963199999999,42.293172
21,546,Morton St @ Shattuck Hospital,-71.102065,42.2987570000001
16,547,Arborway opp Courthouse,-71.107136,42.301072
19,549,Geneva Ave @ Columbia Rd,-71.078142,42.305891
19,550,191 Geneva Ave,-71.07578,42.304962
19,551,Geneva Ave opp Olney St,-71.074293,42.304876
19,552,Geneva Ave @ Bowdoin St,-71.071564,42.3034220000001
15,553,Geneva Ave @ Holiday St,-71.069671,42.3022920000001
15,554,Geneva Ave @ Westville St,-71.0676099999999,42.301075
15,555,Geneva Ave @ Dakota St,-71.066358,42.3003350000001
15,556,Geneva Ave @ Tonawanda St,-71.0648849999999,42.299473
15,557,452 Geneva Ave opp Bloomfield St,-71.065374,42.299875
15,558,Geneva Ave @ Westville St,-71.067152,42.3009250000001
15,559,Geneva Ave @ Topliff St,-71.068069,42.301443
15,560,Geneva Ave @ Holiday St,-71.069383,42.3022480000001
15,561,Geneva Ave @ Levant St,-71.070724,42.3030350000001
19,562,Geneva Ave @ Bowdoin St,-71.071545,42.3035320000001
19,563,Geneva Ave @ Olney St,-71.0738499999999,42.304877
19,564,198 Geneva Ave,-71.076651,42.305194
19,565,Geneva Ave @ Columbia Rd,-71.078119,42.306001
19,566,Geneva Ave @ Columbia Rd,-71.0785099999999,42.3062770000001
19,567,Geneva Ave @ Jeremiah Burke High School,-71.079805,42.3072230000001
19,568,Geneva Ave @ Blue Hill Ave,-71.082804,42.3086940000001
15,569,Dorchester Ave @ Valley Rd,-71.0665069999999,42.2780910000001
15,570,Dorchester Ave @ St Gregory St,-71.0672289999999,42.2755940000001
15,571,Dorchester Ave @ Washington St,-71.068076,42.272302
15,572,River St @ Wichita Ter,-71.0695679999999,42.272455
15,574,River St @ Cedar St,-71.074869,42.271399
15,575,River St @ Standard St,-71.078388,42.2717420000001
15,576,River St opp Duxbury Rd,-71.0807809999999,42.2714050000001
15,577,River St opp Leahaven Rd,-71.082411,42.27135
15,578,River St @ Newcroft Circle,-71.0844549999999,42.271152
15,579,River St @ Gladeside Ave,-71.0878309999999,42.270226
15,580,River St @ Fremont St,-71.090009,42.270027
15,583,River St opp Gladeside Ave,-71.08741,42.270249
15,584,308 River St opp Newcroft Circle,-71.0838639999999,42.271172
15,585,River St @ Leahaven Rd,-71.0823339999999,42.271259
15,586,River St @ Meadowbank Ave,-71.081543,42.2712680000001
15,587,168 River St opp Standard St,-71.078311,42.271645
15,588,River St opp Cedar St,-71.074811,42.2712950000001
15,590,River St opp Wichita Ter,-71.069439,42.2724030000001
15,591,Dorchester Ave opp Adirondack Pl,-71.067718,42.273266
15,593,Dorchester Ave opp St Gregory St,-71.067153,42.275402
15,594,Opp 2165 Dorchester Ave,-71.0668879999999,42.276325
15,595,Dorchester Ave opp Valley Rd,-71.066407,42.2779350000001
30,596,3867 Washington St opp Tollgate Way,-71.117515,42.296502
30,597,Washington St @ Lochdale Rd,-71.11976,42.2943770000001
30,598,Washington St @ Archdale Rd,-71.121366,42.292857
30,599,Washington St @ Mosgrove Ave,-71.122671,42.2916200000001
30,600,Washington St opp Granfield Ave,-71.124116,42.290289
30,601,Washington St @ South St,-71.125793,42.288708
14,602,South St @ Taft Hill Terr,-71.128508,42.28695
40,605,Washington St @ Cornell St,-71.1355129999999,42.279637
40,608,Washington St @ W Roxbury Pkwy,-71.140573,42.275418
40,610,Washington St @ Cowing St,-71.145305,42.2718
40,612,Washington St @ Heron St,-71.1490019999999,42.2687690000001
34E,613,Washington St @ Weymouth Ave,-71.151819,42.2662980000001
34E,614,Washington St @ Rockingham Ave,-71.154641,42.263789
34E,615,Washington St opp Desoto Rd,-71.1554619999999,42.263045
35,616,Washington St @ Grove St,-71.157252,42.2612330000001
35,618,Washington St opp Rockland Towers,-71.16126,42.258017
35,619,Washington St @ Rockland Towers,-71.1605259999999,42.258293
35,619,Washington St @ Rockland Towers,-71.1605259999999,42.258293
35,620,Washington St @ Birchwood St,-71.159317,42.2592470000001
34E,621,Washington St @ Grove St,-71.157076,42.261087
34E,622,Washington St @ Desoto Rd,-71.155382,42.262756
34E,622,Washington St @ Desoto Rd,-71.155382,42.262756
34E,623,Washington St @ Ridgecrest Dr,-71.154008,42.264006
34E,624,Washington St @ Woodley Ave,-71.151799,42.265986
40,625,Washington St @ W Boundary Rd,-71.149375,42.2681170000001
40,626,Washington St opp Maplewood St,-71.1471069999999,42.2700580000001
40,627,Washington St opp Cowing St,-71.145032,42.271706
40,628,Washington St @ Enneking Pkwy,-71.143477,42.27292
40,629,Washington St opp Schubert St,-71.139621,42.2759510000001
40,630,Washington St @ Blue Ledge Dr,-71.138763,42.2767170000001
40,631,Washington St @ Beech St,-71.137033,42.2782070000001
40,632,Washington St @ Cornell St,-71.135573,42.279437
40,633,Washington St @ Metropolitan Ave,-71.133567,42.2812940000001
30,636,Washington St @ Cummins Hwy,-71.1279489999999,42.28652
30,637,Washington St @ Firth Rd,-71.125645,42.2886940000001
30,638,Washington St @ Granfield Ave,-71.1241659999999,42.2900890000001
30,639,Washington St @ Whipple Ave,-71.1225229999999,42.2916060000001
30,640,Washington St @ Archdale Rd,-71.121415,42.2926590000001
30,641,Washington St @ Aldwin Rd,-71.119267,42.2946880000001
30,642,Washington St @ Tollgate Way,-71.1176129999999,42.296255
64,730,Franklin St @ Sidney St,-71.100647,42.361836
35,763,Stimson St @ Washington St,-71.158587,42.2602800000001
35,764,85 Stimson St,-71.159711,42.2609220000001
35,765,2550 Centre St,-71.1633009999999,42.263043
35,766,2508 Centre St,-71.162853,42.2647380000001
35,767,Centre St @ Linden Rd,-71.16286,42.266178
35,768,Centre St opp Northdale Rd,-71.1624889999999,42.267813
35,769,Centre St opp Glenhaven Rd,-71.1619039999999,42.270185
35,770,Centre St @ Wedgemere Rd,-71.161403,42.2719260000001
35,771,Centre St opp Acacia Rd,-71.1607989999999,42.272975
35,772,Centre St opp Cass St,-71.160229,42.2745320000001
35,773,Centre St @ Bogandale Rd,-71.160407,42.276464
36,774,Spring St @ Charles River Loop,-71.1718539999999,42.272122
36,775,Spring St @ Gould St,-71.171035,42.272796
36,776,Spring St @ Cypress St,-71.1683379999999,42.2748520000001
36,777,Spring St @ Baker St,-71.167165,42.27571
36,778,Spring St @ Powell St,-71.162796,42.277517
24,779,Spring St @ Centre St,-71.160172,42.278154
24,780,Centre St @ Saint Theresa Ave,-71.1594269999999,42.2787250000001
24,781,Centre St @ Lagrange St,-71.1580959999999,42.280826
24,782,Centre St Opp Mt Vernon St,-71.157204,42.282883
24,783,Centre St @ Park St,-71.156466,42.285017
24,784,Centre St @ Corey St,-71.15466,42.2861810000001
24,785,Centre St @ Willow St,-71.152321,42.2874610000001
24,786,Belgrade Ave @ Centre St,-71.150087,42.2870090000001
24,787,Belgrade Ave @ West Roxbury Pkwy,-71.147894,42.285941
24,788,Belgrade Ave @ Iona St,-71.1450189999999,42.285984
24,789,Belgrade Ave @ Rexhame St,-71.143322,42.2860170000001
24,790,Belgrade Ave @ Aldrich St,-71.139292,42.2861120000001
24,791,Belgrade Ave @ Walworth St,-71.137212,42.2861960000001
24,792,Belgrade Ave @ Penfield St,-71.135028,42.2862410000001
24,793,Belgrade Ave @ Pinehurst St,-71.13318,42.286301
14,795,Corinth St @ Cohasset St,-71.129103,42.285689
14,797,Belgrade Ave @ Robert St,-71.130867,42.286845
24,798,Belgrade Ave opp Pinehurst St,-71.1329459999999,42.286415
24,799,Belgrade Ave opp Penfield St,-71.1351089999999,42.2863340000001
24,800,Belgrade Ave @ Walworth St,-71.137034,42.286294
24,801,Belgrade Ave opp Aldrich St,-71.1395439999999,42.2861950000001
24,802,Belgrade Ave opp Rexhame St,-71.143403,42.2861080000001
24,803,Belgrade Ave @ McCraw St,-71.145052,42.286077
24,804,Belgrade Ave @ West Roxbury Pkwy,-71.147975,42.286034
24,805,Belgrade Ave @ Centre St,-71.1499899999999,42.2871930000001
24,806,Centre St @ Willow St,-71.1520839999999,42.287564
24,807,Centre St @ Corey St,-71.1550809999999,42.286119
24,808,Centre St opp Bellevue st,-71.156853,42.2844150000001
24,810,1999 Centre St,-71.157831,42.2820330000001
35,811,Centre St @ Spring St,-71.159656,42.278583
24,812,Spring St @ Temple St,-71.1603009999999,42.2782090000001
24,813,Spring St opp Powell St,-71.163224,42.2775100000001
24,814,Spring St @ Gardner St,-71.165423,42.2768520000001
24,815,Spring St @ Baker St,-71.166996,42.2759540000001
24,816,Spring St @ Moville St,-71.168808,42.274612
24,817,Spring St @ VA Hospital,-71.1709559999999,42.272991
24,818,Spring Street opp Charles River Loop,-71.1721219999999,42.2720320000001
36,820,Charles River Loop,-71.1719629999999,42.271777
24,821,Centre St @ Lorette St,-71.159388,42.2789890000001
35,822,Centre St @ Autumn St,-71.1605319999999,42.2764760000001
35,823,Centre St @ Cass St,-71.1603689999999,42.2744910000001
35,824,Centre St @ Bronx Rd,-71.16095,42.2729590000001
35,825,Centre St opp Wedgemere Rd,-71.161439,42.2721290000001
35,826,Centre St @ Glenhaven Rd,-71.16203,42.2701250000001
35,827,Centre St @ Northdale Rd,-71.1628219999999,42.267596
35,828,Centre St @ Fairlane Rd,-71.162965,42.265745
35,829,2519 Centre St,-71.162978,42.2647490000001
35,830,Stimson St @ Centre St,-71.1632769999999,42.2627820000001
35,831,80 Stimson St,-71.1597189999999,42.260813
35,832,Stimson St @ Washington St,-71.158675,42.260206
37,833,Baker St @ Lasell St,-71.170648,42.285986
37,834,Lasell St @ Temple St,-71.1700519999999,42.286439
37,835,Lasell St @ Perham St,-71.169316,42.287039
37,836,Lasell St opp Atlantis St,-71.167836,42.288124
37,837,Lasell St @ Lagrange St,-71.166774,42.2889190000001
37,838,Lagrange St @ Vermont St,-71.165448,42.2875080000001
37,839,Lagrange St @ Burard St,-71.1639079999999,42.2858620000001
37,840,Lagrange St @ Pender St,-71.162477,42.28461
37,841,Lagrange St @ Virgil Rd,-71.161613,42.283759
37,842,Lagrange St @ Westmount Ave,-71.1608179999999,42.282456
37,843,Lagrange St @ Dent St,-71.159686,42.2813770000001
37,845,Lagrange St @ Chapin Ave,-71.159678,42.281487
37,846,Lagrange St @ Westmount Ave,-71.1607329999999,42.2825520000001
37,847,Lagrange St opp Virgil Rd,-71.161535,42.283852
37,848,Lagrange St opp Pender St,-71.162432,42.2847170000001
37,849,Lagrange St opp Burard St,-71.1638629999999,42.285967
37,850,Lagrange St @ Vermont St,-71.165208,42.2874140000001
37,851,Vermont St @ Carroll St,-71.1670149999999,42.286387
37,852,Vermont St @ Temple St,-71.1684779999999,42.2854120000001
37,853,Vermont St @ Baker St,-71.16977,42.284549
15,882,Dorchester Ave @ Richmond St,-71.0675209999999,42.274026
15,883,Dorchester Ave @ Richmond St,-71.067662,42.273982
52,900,Watertown Yard,-71.1857029999999,42.3643070000001
52,902,Galen St @ Boyd St,-71.185448,42.3600080000001
52,903,Washington St @ Bacon St,-71.185943,42.357134
52,903,Washington St @ Bacon St,-71.185943,42.357134
52,903,Washington St @ Bacon St,-71.185943,42.357134
52,903,Washington St @ Bacon St,-71.185943,42.357134
52,903,Washington St @ Bacon St,-71.185943,42.357134
57,904,Park St @ Elmwood St,-71.182378,42.355599
57,905,Tremont St opp Hibbard Rd,-71.181072,42.3546930000001
57,906,Tremont St @ Waverley Ave,-71.17911,42.3540390000001
57,907,Tremont St @ Pembroke St,-71.17681,42.352946
57,909,Tremont St @ Cufflin St,-71.173786,42.351451
57,910,Tremont St @ Tremont Pl,-71.1724379999999,42.350821
57,912,Tremont St @ Washington St,-71.1687669999999,42.350468
57,913,Washington St @ Breck Ave,-71.166709,42.3504050000001
57,916,Washington St @ Lake St,-71.160127,42.348823
57,917,Washington St @ Foster St,-71.157011,42.349007
57,918,Washington St @ Chestnut Hill Ave,-71.154176,42.349043
51,919,Washington St opp Waldo Terr,-71.152193,42.349002
51,920,Cambridge St @ Washington St,-71.150156,42.3489030000001
51,922,Cambridge St opp Dustin St,-71.145688,42.350692
51,924,Cambridge St @ Gordon St,-71.1405109999999,42.352363
51,925,Cambridge St @ Barrows St,-71.13843,42.3530910000001
51,926,Brighton Ave @ Cambridge St,-71.1366869999999,42.353347
51,926,Brighton Ave @ Cambridge St,-71.1366869999999,42.353347
57,927,Brighton Ave @ Allston St,-71.134553,42.353168
57,928,Brighton Ave @ Harvard Ave,-71.132195,42.352853
57,931,Brighton Ave @ Commonwealth Ave,-71.1254509999999,42.352041
57,933,Commonwealth Ave @ Babcock St,-71.121168,42.351568
57,934,Commonwealth Ave @ Pleasant St,-71.1182009999999,42.35123
57,934,Commonwealth Ave @ Pleasant St,-71.1182009999999,42.35123
57,937,Commonwealth Ave @ Carlton St,-71.108712,42.3500750000001
57,938,Commonwealth Ave @ St Mary's St,-71.106391,42.349788
57,939,Commonwealth Ave @ Hinsdale St,-71.103055,42.3493970000001
57,941,Commonwealth Ave @ Blandford St,-71.099643,42.3489700000001
57,941,Commonwealth Ave @ Blandford St,-71.099643,42.3489700000001
57,951,Commonwealth Ave @ Silber Way,-71.10074,42.349458
57,952,Commonwealth Ave @ Granby St,-71.103801,42.349831
57,953,Commonwealth Ave @ St Mary's St,-71.1066299999999,42.3501620000001
57,954,Commonwealth Ave @ University Rd,-71.108831,42.3504530000001
57,956,Commonwealth Ave @ Buick St,-71.115933,42.3513100000001
57,958,Commonwealth Ave @ Babcock St,-71.1214409999999,42.35197
57,959,1079 Commonwealth Ave,-71.1235149999999,42.352224
57,960,19 Brighton Ave,-71.126222,42.3524330000001
57,962,Brighton Ave @ Linden St,-71.130286,42.3529080000001
51,964,Brighton Ave opp Quint Ave,-71.133875,42.353344
51,966,Cambridge St @ N Beacon St,-71.1379479999999,42.353442
51,967,Cambridge St @ Saunders St,-71.141711,42.35209
51,969,Cambridge St @ Dustin St,-71.145539,42.3508640000001
51,970,Cambridge St @ Sparhawk St,-71.147347,42.350124
51,971,Cambridge St @ Elko St,-71.1492259999999,42.3494420000001
51,972,Washington St @ Waldo Terr,-71.151941,42.3490810000001
57,973,Washington St @ Market St,-71.15404,42.349206
57,974,Washington St @ Foster St,-71.157223,42.34916
57,975,Washington St @ Brock St,-71.1605729999999,42.348976
57,977,Washington St @ Oak Square Ave,-71.164524,42.349897
57,979,Tremont St @ Washington St,-71.1686359999999,42.3506090000001
57,981,Tremont St opp Tremont Pl,-71.172164,42.3507980000001
57,982,Tremont St opp Cufflin St,-71.173976,42.3516670000001
57,983,Tremont St @ Playstead Rd,-71.1765339999999,42.35292
57,985,Tremont St @ Waverley Ave,-71.178781,42.353972
57,986,Tremont St @ Hibbard Rd,-71.1811969999999,42.35483
57,987,Park St @ Tremont St,-71.182247,42.3556060000001
52,988,Centre St @ Jefferson St,-71.1846419999999,42.3580400000001
52,989,Galen St @ Maple St,-71.185332,42.360079
35,992,Grove St opp Altair Rd,-71.1581879999999,42.264504
35,993,Grove St @ Overlook Rd,-71.157452,42.262598
66,994,Winship St @ Union St,-71.152305,42.3462040000001
51,1001,Newton St @ Arlington Rd,-71.169522,42.307661
51,1026,Chestnut Hill Ave @ Veronica Smith Ctr,-71.153921,42.347693
51,1027,Chestnut Hill Ave @ Englewood Ave,-71.152079,42.337121
51,1029,Chestnut Hill Ave @ Commonwealth Ave,-71.153451,42.338312
51,1030,Chestnut Hill Ave @ Strathmore Rd,-71.155274,42.3402600000001
51,1031,Chestnut Hill Ave @ Chiswick Rd,-71.154737,42.3410960000001
51,1032,Chestnut Hill Ave opp Wiltshire Rd,-71.153469,42.3430650000001
51,1033,Chestnut Hill Ave @ Wallingford Rd,-71.15322,42.3446070000001
51,1034,Chestnut Hill Ave @ Union St,-71.152997,42.346123
86,1035,Market St @ Washington St,-71.153309,42.3492610000001
86,1036,Market St @ Sparhawk St,-71.151763,42.3517380000001
86,1038,Market St @ Gardena St,-71.150236,42.354227
86,1039,Market St @ N Beacon St,-71.149366,42.3555690000001
64,1040,Market St @ Guest St,-71.148285,42.357313
86,1041,Market St @ Centola St,-71.147082,42.3592790000001
86,1042,Market St @ Lothrop St,-71.146341,42.360459
70,1043,Western Ave @ Mackin St,-71.145098,42.3615570000001
70,1045,450 Western Ave,-71.141783,42.3621640000001
70,1046,Western Ave @ Litchfield St,-71.139786,42.362531
70,1049,Western Ave @ Everett St,-71.135443,42.363093
70,1051,Western Ave @ Travis St,-71.128518,42.3632480000001
70,1052,130 Western Ave,-71.1250429999999,42.363526
70,1053,Western Ave @ Genzyme,-71.122666,42.3637220000001
64,1055,River St opp Blackstone St,-71.114378,42.3619130000001
64,1055,River St opp Blackstone St,-71.114378,42.3619130000001
64,1055,River St opp Blackstone St,-71.114378,42.3619130000001
64,1055,River St opp Blackstone St,-71.114378,42.3619130000001
64,1056,River St @ Fairmont St,-71.112387,42.3625650000001
64,1058,River St @ Pleasant St,-71.1085859999999,42.3638500000001
64,1060,Magazine St @ Green St,-71.1043109999999,42.3651140000001
64,1061,Western Ave @ Kinnaird St,-71.1089009999999,42.3649520000001
64,1062,Western Ave @ Howard St,-71.110649,42.3647980000001
64,1064,Western Ave @ Putnam Ave,-71.114114,42.364492
70,1067,Western Ave opp Genzyme,-71.12231,42.363844
70,1068,125 Western Ave,-71.124624,42.363654
70,1070,Western Ave @ N Harvard St,-71.129148,42.3632840000001
70,1071,Western Ave opp Riverdale St,-71.132079,42.3632530000001
70,1072,Western Ave @ Everett St,-71.135542,42.3631790000001
70,1074,367 Western Ave opp Brighton Mills Mall,-71.138519,42.362807
70,1075,Western Ave opp Litchfield St,-71.139575,42.3626620000001
70,1076,445 Western Ave,-71.14136,42.3623410000001
70,1077,495 Western Ave,-71.143386,42.361971
64,1079,Market St @ Vineland St,-71.1486859999999,42.3569210000001
86,1081,Market St opp Gardena St,-71.150346,42.3543290000001
86,1083,Market St @ Arlington St,-71.1520609999999,42.3515100000001
51,1084,Chestnut Hill Ave @ Washington St,-71.153531,42.349027
51,1085,Chestnut Hill Ave @ Academy Hill Rd,-71.1537499999999,42.347089
51,1086,Chestnut Hill Ave @ Jackson Ave,-71.153293,42.344738
51,1087,Chestnut Hill Ave @ Wiltshire Rd,-71.153613,42.3430490000001
51,1088,Chestnut Hill Ave @ Embassy Rd,-71.154691,42.341436
51,1089,Chestnut Hill Ave @ South St,-71.155288,42.340486
51,1090,Chestnut Hill Ave @ Commonwealth Ave,-71.153702,42.33833
51,1092,Chestnut Hill Ave @ Beacon St,-71.151237,42.336219
64,1094,Brooks St @ Faneuil St,-71.163015,42.3523660000001
64,1100,Brooks St @ Hobart St,-71.162428,42.3555390000001
64,1102,N Beacon St @ Parsons St,-71.157999,42.358297
64,1103,N Beacon St @ Goodenough St,-71.153824,42.357467
64,1104,N Beacon St opp Vineland St,-71.152801,42.357
64,1109,N Beacon St @ Saunders St,-71.14151,42.354115
64,1110,N Beacon St @ Cambridge St,-71.1381729999999,42.3535830000001
64,1111,Cambridge St opp Hano St,-71.136365,42.353931
64,1111,Cambridge St opp Hano St,-71.136365,42.353931
64,1112,Cambridge St @ Harvard Ave,-71.133178,42.3552520000001
64,1114,Cambridge St @ N Harvard St,-71.126505,42.357758
64,1115,Cambridge St @ Seattle St,-71.1239669999999,42.358658
64,1116,Cambridge St @ Mass Pike Exit,-71.118544,42.36064
47,1123,Green St @ Magazine St,-71.104405,42.3649350000001
38,1128,South St @ Sedgwick St,-71.115487,42.308588
35,1129,Centre St @ Seaverns Ave,-71.114144,42.3121980000001
35,1130,Centre St @ Saint John St,-71.1140359999999,42.314197
35,1132,Centre St opp Beaufort Rd,-71.113368,42.3169510000001
41,1134,Centre St @ Paul Gore St,-71.1105489999999,42.3208540000001
41,1135,Centre St @ Sheridan St,-71.1090399999999,42.322164
41,1136,Centre St @ Wyman St,-71.1069669999999,42.322458
41,1137,Centre St @ Mozart St,-71.104662,42.322684
41,1138,Centre St @ Estrella St,-71.1029789999999,42.3228560000001
14,1140,Centre St @ Highland St,-71.097571,42.3247910000001
14,1141,Centre St opp New Heath St,-71.096534,42.326102
14,1142,Centre St @ Cedar St,-71.095518,42.3277780000001
14,1143,Centre St @ Linwood St,-71.094998,42.328574
14,1144,Centre St @ Highland Ave,-71.0930319999999,42.3296570000001
14,1145,42A John Eliot Sq,-71.0915469999999,42.3299620000001
14,1147,Dudley St @ Guild Row,-71.0862059999999,42.328969
14,1148,Malcolm X Blvd @ Shawmut Ave,-71.08613,42.329687
14,1149,205 Roxbury St,-71.0913429999999,42.330096
14,1150,Centre St @ Gardner St,-71.094099,42.329386
14,1151,Centre St @ Cedar St,-71.095812,42.327548
14,1152,Centre St @ New Heath St,-71.096665,42.3260530000001
14,1153,Centre St @ Columbus Ave,-71.09811,42.324917
14,1154,Heath St @ Bromley St,-71.0995789999999,42.325366
41,1155,Centre St @ Bickford St,-71.102275,42.32295
41,1156,Centre St @ Sunnyside St,-71.105716,42.3226760000001
41,1158,Centre St @ Creighton St,-71.108661,42.322368
41,1159,Centre St @ Barbara St,-71.1105439999999,42.3210930000001
35,1160,S Huntington Ave @ Moraine St,-71.111729,42.319618
35,1161,Centre St @ Lochstead Ave,-71.1132289999999,42.3173650000001
35,1164,Centre St @ Myrtle St,-71.11416,42.3133060000001
42,1165,Washington St @ Walnut Pk,-71.097563,42.316446
42,1166,Washington St @ Cobden St,-71.096449,42.3175790000001
42,1167,Washington St opp Dimock St,-71.095139,42.318899
42,1168,Washington St @ Townsend St,-71.0940669999999,42.319958
42,1168,Washington St @ Townsend St,-71.0940669999999,42.319958
42,1169,Washington St @ Brinton St,-71.092974,42.3208290000001
42,1170,Washington St @ ML King Blvd,-71.091752,42.3217490000001
42,1172,Washington St @ Dale St,-71.089573,42.323294
42,1173,Washington St opp Cedar St,-71.088808,42.324102
42,1174,Washington St @ Circuit St,-71.087772,42.3258270000001
42,1175,Washington St @ St James St,-71.087149,42.327276
42,1178,Washington St @ Bartlett St,-71.087124,42.327638
42,1179,Washington St @ Guild St,-71.087812,42.326035
42,1180,Washington St @ Cedar St,-71.0887729999999,42.324307
42,1181,Washington St @ Oakland St,-71.0896,42.3234620000001
42,1182,Washington St @ Valentine St,-71.091899,42.3217720000001
42,1183,Washington St @ Marcella St,-71.0931219999999,42.3208510000001
42,1184,Washington St opp Townsend St,-71.094006,42.320155
42,1185,Washington St @ Dimock St,-71.09529,42.3189080000001
42,1186,Washington St @ Bray St,-71.096775,42.317415
42,1187,Washington St @ Columbus Ave,-71.097858,42.3162990000001
22,1188,Columbus Ave opp Weld Ave,-71.097816,42.315394
22,1188,Columbus Ave opp Weld Ave,-71.097816,42.315394
64,1190,Cambridge St @ Seattle St,-71.1238529999999,42.358891
64,1191,Cambridge St @ Lincoln St,-71.128045,42.3574580000001
64,1193,Cambridge St @ Franklin St,-71.132875,42.3555510000001
64,1195,Cambridge St @ Emery Rd,-71.135846,42.3542780000001
64,1196,N Beacon St @ Cambridge St,-71.1381279999999,42.353748
64,1197,N Beacon St opp Saunders St,-71.141738,42.35436
64,1202,N Beacon St @ Vineland St,-71.152796,42.3571870000001
64,1203,N Beacon St @ Birmingham Pkwy,-71.1571499999999,42.3584210000001
64,1204,Birmingham Pkwy @ Soldiers Field Rd,-71.1584139999999,42.35896
64,1206,Brooks St @ Gerrish St,-71.16238,42.3554320000001
64,1211,Faneuil St @ Brooks St,-71.163066,42.3524560000001
64,1213,Faneuil St @ Bigelow St,-71.167478,42.351254
64,1214,Faneuil St @ Oak Square,-71.1673489999999,42.3511960000001
22,1215,Columbus Ave @ Bray St,-71.098115,42.3172440000001
22,1216,Columbus Ave @ Dimock St,-71.09816,42.3194490000001
22,1219,Columbus Ave @ Centre St,-71.09808,42.3250150000001
22,1221,Columbus Ave @ Cedar St,-71.096921,42.328012
22,1222,Columbus Ave @ Malcolm X Blvd,-71.0944679999999,42.331191
15,1224,Tremont St opp Prentiss St,-71.092343,42.332706
43,1227,Tremont St @ Melnea Cass Blvd,-71.086826,42.335698
43,1228,Tremont St @ Hammond St,-71.0840219999999,42.337226
43,1230,Tremont St @ Northampton St,-71.081156,42.3387460000001
43,1231,Tremont St @ W Springfield St,-71.079623,42.3395840000001
43,1232,Tremont St @ W Concord St,-71.078156,42.340407
43,1233,Tremont St @ W Newton St,-71.076653,42.341236
43,1234,Tremont St @ W Brookline St,-71.075413,42.341887
43,1235,Tremont St @ W Dedham St,-71.073943,42.3426660000001
43,1236,Tremont St @ Waltham St,-71.071653,42.343873
43,1237,Tremont St @ E Berkeley St,-71.069868,42.345145
43,1238,Tremont St @ Herald St,-71.068607,42.347363
43,1239,Tremont St @ Marginal St,-71.067595,42.3481800000001
43,1241,Charles St S @ Park Plaza,-71.067101,42.351748
43,1242,Tremont St @ Charles St S,-71.066481,42.348777
43,1246,Tremont St @ Union Pk,-71.072264,42.3436730000001
43,1247,Tremont St @ Dartmouth St,-71.0736899999999,42.3429100000001
43,1248,Tremont St @ Pembroke St,-71.0759169999999,42.3417380000001
69,2439,Hampshire St @ Inman St,-71.100456,42.3733280000001
83,2440,Prospect St @ St Mary Rd,-71.1002149999999,42.370544
83,2441,Prospect St @ Broadway,-71.10101,42.369406
64,2442,Prospect St @ Harvard St,-71.1017449999999,42.36839
64,2443,Prospect St @ Bishop Allen Dr,-71.1031379999999,42.366433
64,2444,Western Ave @ Green St,-71.105242,42.3652660000001
64,2444,Western Ave @ Green St,-71.105242,42.3652660000001
64,2444,Western Ave @ Green St,-71.105242,42.3652660000001
64,2446,Prospect St @ Bishop Allen Dr,-71.103015,42.3663940000001
64,2447,Prospect St @ Harvard St,-71.101754,42.368187
83,2448,Prospect St @ Broadway,-71.101015,42.369203
83,2449,Prospect St @ Gardner Rd,-71.099925,42.370757
83,2451,Hampshire St @ Cambridge St,-71.100422,42.3734370000001
83,2453,45 Beacon St,-71.1032949999999,42.375861
83,2454,Beacon St @ Calvin St,-71.1050759999999,42.3772650000001
83,2455,Beacon St @ Washington St,-71.106479,42.3784170000001
83,2457,Beacon St @ Park St,-71.108581,42.3801310000001
83,2459,Somerville Ave @ Mossland St,-71.117312,42.387594
83,2460,Somerville Ave @ White St (Porter Sq),-71.118917,42.3885340000001
83,2461,Rindge Ave @ Massachusetts Ave,-71.1254739999999,42.3926090000001
83,2462,Rindge Ave @ Reed St,-71.131424,42.393429
83,2463,Rindge Ave @ Clifton St,-71.1363739999999,42.3937910000001
78,2464,Wadsworth Rd @ Dow Ave,-71.194248,42.4157640000001
78,2465,Wadsworth Rd @ Homer Rd,-71.196852,42.416412
78,2466,Appleton St @ Lublin St,-71.198315,42.417717
78,2467,Appleton St @ Homer Rd,-71.195486,42.4191670000001
78,2468,Appleton St @ Kipling Rd,-71.19327,42.4193940000001
78,2469,Appleton St opp Ely Rd,-71.188934,42.419965
78,2470,Wachusett Ave @ Dow Ave,-71.1866199999999,42.419928
78,2471,Wachusett Ave @ Florence Ave,-71.185714,42.4181310000001
78,2472,Wachusett Ave @ Oakland Ave,-71.1841269999999,42.4161700000001
78,2473,Wachusett Ave @ Hillside Ave,-71.182949,42.4147810000001
67,2475,Lake St @ Pleasant St,-71.164251,42.405193
67,2476,Lake St @ Milton St,-71.162748,42.404453
67,2477,Lake St @ Albert Ave,-71.1606629999999,42.4038400000001
67,2478,Lake St @ Rt 2 East on Ramp,-71.15773,42.4022790000001
67,2482,West Service Rd @ Lake St,-71.155674,42.40281
78,2483,Wachusett Ave @ Hillside Ave,-71.1828859999999,42.414883
78,2484,Wachusett Ave @ Prospect Ave,-71.1840339999999,42.4162390000001
78,2485,Wachusett Ave @ Florence Ave,-71.185488,42.418015
78,2486,Wachusett Ave @ Appleton St,-71.1865299999999,42.420016
78,2487,Appleton St @ Ely Rd,-71.189071,42.420017
78,2488,Appleton St @ Wollaston Ave,-71.1918719999999,42.4188940000001
78,2489,Appleton St @ Ortona St,-71.193,42.41941
78,2490,Appleton St @ Udine St,-71.195567,42.4192630000001
78,2491,Appleton St @ Lublin St,-71.1982619999999,42.417918
78,2493,Service Road West @ Watertown St,-71.2048819999999,42.418686
78,2494,East Service Rd @ Golden Ave,-71.1990959999999,42.416276
78,2495,East Service Rd @ Standish Rd,-71.195301,42.4151820000001
85,2507,Summer St @ School St,-71.100336,42.3841990000001
85,2508,Summer St @ Vinal Ave,-71.098475,42.382258
85,2510,Somerville Ave @ Union Square,-71.0966979999999,42.3799960000001
85,2512,25 Webster Ave @ Newton St,-71.0959559999999,42.377936
85,2513,Webster Ave @ Norfolk St,-71.095093,42.3751800000001
85,2515,Windsor St @ Lincoln St,-71.09398,42.3710520000001
85,2516,Windsor St @ Hampshire St,-71.0948109999999,42.3688520000001
85,2517,Hampshire St @ Clark St,-71.093175,42.367334
85,2518,Hampshire St @ Portland St,-71.091742,42.3661440000001
85,2519,Avon St @ Central St,-71.104567,42.386467
85,2520,Avon St @ School St,-71.1001869999999,42.3848990000001
85,2521,Hampshire St @ Cardinal Medeiros Ave,-71.091675,42.3662610000001
85,2522,Hampshire St @ Webster Ave,-71.092596,42.367008
85,2523,Hampshire St @ Windsor St,-71.094657,42.3687170000001
85,2524,Hampshire St @ Columbia St,-71.0960699999999,42.3698820000001
85,2525,Columbia St @ Cambridge St,-71.094479,42.372783
85,2527,Webster Ave @ Columbia St,-71.094913,42.375026
85,2528,Webster Ave @ Prospect St,-71.0955,42.3768830000001
91,2531,Prospect St @ Bennett Ct,-71.094187,42.3788470000001
85,2532,117 Summer St,-71.102857,42.385276
85,2533,Summer St @ School St,-71.1002789999999,42.384301
85,2534,Summer St opp Carter Terr,-71.104475,42.3858460000001
86,2545,Washington St @ Dane St,-71.103918,42.378899
86,2546,Washington St @ Beacon St,-71.106279,42.378339
86,2547,Kirkland St opp Trowbridge St,-71.109341,42.3776770000001
86,2548,Kirkland St @ Kirkland Place,-71.112872,42.376924
66,2550,JFK St @ Eliot St,-71.12127,42.3713240000001
66,2551,N Harvard St @ Gate 2 Harvard Stadium,-71.125108,42.366948
66,2553,N Harvard St @ Western Ave,-71.129248,42.363657
66,2554,N Harvard St @ Franklin St,-71.130488,42.361884
66,2555,N Harvard St @ Coolidge Rd,-71.1290089999999,42.360395
66,2556,N Harvard St @ Hooker St,-71.127014,42.3587420000001
66,2558,N Harvard St @ Empire St,-71.126738,42.35853
66,2559,N Harvard St @ Oxford St,-71.128574,42.36019
66,2559,N Harvard St @ Oxford St,-71.128574,42.36019
66,2560,N Harvard St @ Kingsley St,-71.130333,42.3618920000001
66,2561,N Harvard St @ Western Ave,-71.1291419999999,42.363592
66,2564,N Harvard St opp Harvard Stadium Gate 2,-71.1248239999999,42.36708
86,2565,16 Eliot St,-71.121338,42.3717330000001
86,2567,Quincy St @ Kirkland St,-71.1140589999999,42.376511
86,2568,Kirkland St @ Sumner Rd,-71.1122589999999,42.3769550000001
86,2569,Kirkland St @ Trowbridge St,-71.109541,42.3775410000001
86,2570,Washington St @ Beacon St,-71.106484,42.378206
86,2571,Washington St @ Calvin St,-71.10416,42.3787330000001
85,2574,51 Bow St,-71.0985269999999,42.38163
87,2575,Broadway @ Garrison Ave,-71.130239,42.405069
87,2576,Broadway @ Weston Ave,-71.128798,42.4040140000001
87,2577,Broadway @ Holland St - Teele Sq,-71.12751,42.403329
87,2578,Holland St @ Moore St,-71.1268929999999,42.4024840000001
87,2579,Holland St @ Cameron Ave,-71.126139,42.4008660000001
87,2580,Holland St @ Jay St,-71.1248199999999,42.3991960000001
87,2581,Holland St @ Dover St,-71.122971,42.3969300000001
87,2582,Elm St @ Chester St,-71.1216459999999,42.3948540000001
87,2583,Elm St @ Russell St,-71.120873,42.393648
87,2584,Elm St @ Beech St,-71.11922,42.391598
87,2586,Elm St @ Porter Sq Shopping Ctr,-71.116927,42.389467
87,2586,Elm St @ Porter Sq Shopping Ctr,-71.116927,42.389467
87,2587,Elm St @ Mossland St,-71.1155699999999,42.3880110000001
87,2588,Elm St opp Porter St,-71.113778,42.3859560000001
83,2589,Somerville Ave @ Sacramento St,-71.1120109999999,42.384604
83,2590,594 Somerville Ave,-71.109214,42.3837770000001
83,2591,Somerville Ave opp Central St,-71.107022,42.3832840000001
87,2593,Somerville Ave opp Loring St,-71.104227,42.3826270000001
87,2594,Somerville Ave opp School St,-71.102178,42.3819750000001
87,2595,Somerville Ave @ Carlton St,-71.099677,42.381176
86,2597,Somerville Ave @ Prospect St,-71.095387,42.379488
80,2600,McGrath Hwy @ Medford St,-71.08847,42.37687
80,2601,McGrath Hwy @ Twin City Plaza,-71.082777,42.3738880000001
80,2602,O'Brien Hwy @ Winter St,-71.0801039999999,42.3725460000001
80,2605,McGrath Hwy opp Twin City Plaza,-71.0825609999999,42.374126
80,2606,225 Msgr O'Brien Hwy,-71.0802219999999,42.3729700000001
80,2607,McGrath Hwy @ Poplar St,-71.088178,42.3770920000001
87,2609,Somerville Ave @ McGrath Hwy,-71.089844,42.3775850000001
86,2610,Washington St @ Washington Terr,-71.092878,42.379523
86,2612,Somerville Ave @ Stone Ave,-71.095164,42.3795470000001
86,2613,Washington St @ Webster Ave,-71.096874,42.3796100000001
85,2614,Summer St @ Wesley Park,-71.098193,42.382139
86,2615,Washington St opp Parker St,-71.100178,42.3794
87,2617,Somerville Ave @ Loring St,-71.104054,42.382689
83,2618,Somerville Ave @ Central St,-71.107062,42.383388
83,2620,Somerville Ave @ Spring St,-71.109672,42.3839760000001
83,2621,Somerville Ave @ Lowell St,-71.1120129999999,42.3847200000001
87,2622,Elm St @ Porter St,-71.1139029999999,42.38626
87,2623,Elm St @ Cedar St,-71.1152999999999,42.3878730000001
87,2625,Elm St @ Hancock St,-71.1172129999999,42.38991
87,2626,Elm St @ Saint James Ave,-71.119271,42.391821
87,2627,Elm St @ Cutter Ave,-71.1207249999999,42.3936580000001
87,2628,Grove St @ Highland Ave,-71.120198,42.3960240000001
87,2630,Holland St @ Wallace St,-71.123727,42.398059
87,2631,Holland St @ Paulina St,-71.1251389999999,42.3997810000001
87,2632,Holland St opp Cameron Ave,-71.126094,42.4010710000001
87,2634,Broadway @ Curtis St,-71.127338,42.403375
87,2635,Broadway @ Dickson St,-71.128532,42.403963
87,2636,Broadway @ North St,-71.131478,42.4059320000001
87,2637,Clarendon Hill Busway,-71.1320699999999,42.4059070000001
80,2659,McGrath Hwy @ Alston St,-71.089685,42.381061
80,2659,McGrath Hwy @ Alston St,-71.089685,42.381061
88,2660,Highland Ave @ Medford St,-71.092778,42.384648
88,2661,Highland Ave @ Walnut St,-71.094037,42.3851300000001
88,2662,75 Highland Ave opp Putnam St,-71.0966329999999,42.386151
88,2664,Highland Ave @ School St,-71.0985899999999,42.386828
88,2665,125 Highland Ave,-71.1009799999999,42.3876260000001
88,2666,Highland Ave @ Central St,-71.103505,42.3884830000001
88,2667,Highland Ave @ Benton Rd,-71.105084,42.3890180000001
88,2668,Highland Ave @ Lowell St,-71.107805,42.39018
88,2669,235 Highland Ave,-71.109274,42.3908410000001
88,2670,263 Highland Ave,-71.110743,42.391507
88,2671,Highland Ave @ Cedar St,-71.112537,42.39232
88,2672,Highland Ave @ Cherry St,-71.1141729999999,42.3930140000001
88,2673,Highland Ave @ Willow Ave,-71.11695,42.394211
88,2674,Highland Ave @ Cutter Ave,-71.119331,42.3951220000001
88,2675,Highland Ave @ Willow Ave,-71.116662,42.3939770000001
88,2676,Highland Ave @ Cherry St,-71.1141699999999,42.3929010000001
88,2677,Highland Ave @ Cedar St,-71.11225,42.392088
88,2678,Highland Ave @ Conwell St,-71.11074,42.391397
88,2679,Highland Ave @ Tower St,-71.10885,42.3905350000001
88,2680,Highland Ave @ Lowell St,-71.1078019999999,42.390067
88,2681,Highland Ave @ Benton Rd,-71.105358,42.389013
88,2682,Highland Ave @ Central St,-71.1035669999999,42.3883930000001
88,2683,Highland Ave @ Trull Ln,-71.101254,42.387616
88,2684,Highland Ave @ School St,-71.0988639999999,42.3868150000001
88,2686,Highland Ave @ Vinal Ave,-71.09619,42.3858750000001
88,2687,Highland Ave @ Walnut St,-71.0943109999999,42.385133
88,2688,Medford St @ Highland Ave,-71.092101,42.383968
80,2689,422 McGrath Hwy,-71.0911369999999,42.3826060000001
80,2690,Medford St @ Washington St,-71.090071,42.3803350000001
89,2691,Broadway opp Packard Ave,-71.124817,42.402159
89,2692,Broadway @ Simpson Ave,-71.122057,42.401349
89,2693,Broadway @ Billingham St,-71.1191499999999,42.4007470000001
80,2695,Broadway opp Warner St - Powder House Sq,-71.116231,42.400968
80,2696,Broadway @ Bay State Ave,-71.114482,42.400608
80,2697,Broadway @ Josephine Ave - Ball Sq,-71.111859,42.3997400000001
80,2698,Broadway @ Cedar St,-71.10781,42.398373
80,2698,Broadway @ Cedar St,-71.10781,42.398373
80,2699,Broadway @ Hinckley St - Magoun Sq,-71.1051859999999,42.397544
89,2700,Broadway @ Medford St - Magoun Sq,-71.104096,42.397203
89,2702,Broadway @ Bartlett St,-71.100118,42.395833
89,2703,Broadway opp Main St,-71.097789,42.394728
89,2704,Broadway @ Thurston St,-71.095921,42.3937910000001
89,2706,Broadway @ Marshall St,-71.0928069999999,42.3921580000001
89,2707,Broadway @ Montgomery Ave,-71.0902639999999,42.390497
89,2709,Broadway St @ MacArthur St,-71.087677,42.3893160000001
89,2710,Broadway @ Cross St,-71.086108,42.3886160000001
89,2711,Broadway @ Glen St,-71.084329,42.387798
89,2712,Broadway @ Franklin St,-71.0821759999999,42.3870630000001
89,2713,Broadway @ Lincoln St,-71.080639,42.3866320000001
89,2714,Broadway @ Mt Vernon St,-71.0786659999999,42.3860490000001
87,2715,Broadway @ Belknap St,-71.130298,42.405242
89,2718,Broadway @ Austin St,-71.080685,42.3868600000001
89,2719,Broadway @ Indiana Ave,-71.0825,42.3873990000001
89,2720,Broadway @ Michigan Ave,-71.084232,42.3880060000001
89,2721,Broadway @ Cross St,-71.0857779999999,42.3887110000001
89,2721,Broadway @ Cross St,-71.0857779999999,42.3887110000001
89,2721,Broadway @ Cross St,-71.0857779999999,42.3887110000001
89,2722,Broadway @ Kensington Ave,-71.08728,42.3894050000001
89,2723,Broadway @ Fellsway W,-71.090085,42.3907380000001
89,2723,Broadway @ Fellsway W,-71.090085,42.3907380000001
89,2723,Broadway @ Fellsway W,-71.090085,42.3907380000001
89,2725,Broadway @ Temple St,-71.092975,42.392521
89,2725,Broadway @ Temple St,-71.092975,42.392521
89,2726,Broadway @ Winter Hill Plaza,-71.0941819999999,42.393129
89,2729,Broadway @ Main St,-71.097459,42.3948170000001
89,2729,Broadway @ Main St,-71.097459,42.3948170000001
89,2729,Broadway @ Main St,-71.097459,42.3948170000001
89,2731,Broadway opp Glenwood Rd,-71.101014,42.3963
89,2733,Broadway @ Medford St - Magoun Sq,-71.104121,42.3973130000001
80,2734,Broadway @ William St,-71.105925,42.397876
80,2735,Broadway @ Alfred St,-71.1075729999999,42.398403
80,2736,Broadway @ Boston Ave - Ball Sq,-71.11218,42.399952
80,2737,Broadway @ Pearson Rd,-71.114064,42.400576
80,2738,Broadway @ Warner St - Powder House Sq,-71.116275,42.401082
89,2740,Broadway @ Walker St,-71.1182909999999,42.4008450000001
89,2741,Broadway @ Leonard St,-71.12091,42.401172
89,2742,Broadway @ Mason St,-71.122806,42.4016310000001
89,2743,Broadway @ Packard Ave,-71.124828,42.402272
90,2745,Cross St @ Pearl St,-71.0876919999999,42.385796
90,2746,Cross St @ Ellsworth St,-71.086847,42.387146
90,2747,Cross St @ Broadway,-71.085968,42.388509
90,2748,Cross St @ Broadway,-71.0861159999999,42.388493
90,2749,Cross St @ Otis St,-71.086991,42.3871350000001
90,2750,Cross St @ Pearl St,-71.087844,42.3857800000001
90,2752,Cross St @ Flint St,-71.088713,42.3847180000001
90,2753,Cross St @ Auburn Ave,-71.0895379999999,42.383766
90,2754,Cross St @ Chester Ave,-71.090245,42.38255
47,2755,Green St @ Pearl St,-71.103034,42.364128
86,2757,Cambridge St @ Brighton St,-71.078864,42.38243
86,2758,Cambridge St @ Parker St,-71.079946,42.3822880000001
86,2759,Washington St @ Mt Vernon St,-71.081827,42.3820210000001
86,2760,Washington St @ Franklin St,-71.084844,42.3815760000001
86,2761,Washington St @ Tufts St,-71.087483,42.381038
86,2762,Washington St @ McGrath Hwy,-71.090175,42.380168
86,2763,Washington St @ Boston St,-71.091359,42.3797200000001
86,2773,Washington St @ Merriam St,-71.0922859999999,42.3794110000001
86,2774,Washington St @ McGrath Hwy,-71.089974,42.3797920000001
86,2775,Washington St @ Joy St,-71.0886659999999,42.380569
86,2776,Washington St @ New Washington St,-71.086308,42.381241
86,2777,Washington St @ Inner Belt Rd,-71.081316,42.382012
86,2778,Washington St opp Myrtle St,-71.084037,42.3815760000001
86,2779,Cambridge St @ Carter St,-71.078998,42.382304
33,2783,River St @ Hyde Park Ave,-71.124343,42.2558260000001
50,2784,11 Summer St,-71.125917,42.2564100000001
50,2785,61 Summer St opp Parrott St,-71.1250929999999,42.2589980000001
50,2786,Summer St @ West St,-71.124565,42.26264
50,2787,West St @ Austin St,-71.125455,42.2632330000001
